,address,confidence,hid,lat,lng,status
0,台北市文山區忠順街１段４１巷８號,9,3701200921,24.9847057,121.5586221,OK
1,台北市文山區景興路１１９號１樓,9,3701200949,24.99477,121.544836,OK
2,台北市文山區木新路３段３５０號,9,3701200958,24.9803977,121.5548743,OK
3,台北市文山區興隆路３段２０７巷１１弄１１號,9,3701200976,24.995404,121.561459,OK
4,台北市文山區景文街４６號,9,3701200985,24.9915842,121.5412382,OK
5,台北市文山區羅斯福路６段１１２號,9,3701201008,24.9973944,121.5405175,OK
6,台北市文山區興隆路２段１２４號,9,3701201026,25.000958,121.550386,OK
7,台北市文山區忠順街１段１５５號１樓,9,3701201062,24.9845466,121.5611764,OK
8,台北市文山區羅斯福路５段２４０號１樓,9,3701201080,25.0013529,121.538933,OK
9,台北市文山區羅斯福路５段１８０號,9,3701201099,25.0041025,121.5384639,OK
10,台北市文山區忠順街１段２６巷３２號,9,3701201115,24.9825484,121.5596188,OK
11,台北市文山區木柵路２段１４３號,9,3701201124,24.9890766,121.5624067,OK
12,台北市文山區興隆路４段６８號１樓,9,3701202130,24.9848184,121.5613936,OK
13,台北市文山區木新路２段２４７號１樓,9,3701202149,24.983212,121.56707,OK
14,台北市文山區木柵路２段６８號,9,3701202176,24.9885759,121.55944,OK
15,台北市文山區木柵路１段７１號,9,3701202194,24.9869601,121.5464351,OK
16,台北市文山區景福街３０號１樓,9,3701202201,24.999588,121.5385565,OK
17,台北市文山區興隆路１段７２、７４號、７０巷１－１號２樓,9,3701202238,25.0036743,121.540773,OK
18,台北市文山區羅斯福路５段１７２號２樓,9,3701202265,25.0043935,121.538633,OK
19,台北市文山區景美街１－６號１樓及地下１樓,9,3701202274,24.9940027,121.5417685,OK
20,台北市文山區興隆路２段１９５號,9,3701202292,25.0008219,121.5496048,OK
21,台北市文山區木新路３段１４１號,9,3701202309,24.9817997,121.5616121,OK
22,台北市文山區木柵路２段７２號,9,3701202336,24.988581,121.559532,OK
23,台北市文山區興隆路４段６之１３號,9,3701202345,24.989451,121.559638,OK
24,台北市文山區指南路２段１２９號,9,3701202354,24.9874213,121.5770891,OK
25,台北市文山區景華街８２巷１５號,9,3701202363,24.993881,121.545458,OK
26,台北市文山區興隆路３段４１號,9,3701202381,25.0004947,121.5557998,OK
27,台北市文山區羅斯福路５段１７１號,9,3701202407,25.003072,121.538877,OK
28,台北市文山區木柵路１段３２５之２號,9,3701202416,24.9885803,121.5563359,OK
29,台北市文山區福興路２３號,9,3701202425,25.002751,121.551217,OK
30,台北市文山區指南路二段２０３號,9,3701202434,24.9871103,121.5783614,OK
31,台北市文山區指南路１段４３號２樓,9,3701202443,24.9877516,121.5701522,OK
32,台北市文山區興隆路３段１３３號,9,3701202452,24.9984596,121.5587252,OK
33,台北市文山區汀州路４段１４６號,9,3701202461,25.0049357,121.5355775,OK
34,台北市文山區羅斯福路６段２００號,9,3701202470,24.9937079,121.540746,OK
35,台北市文山區羅斯福路６段２７２號,9,3701202489,24.991458,121.539969,OK
36,台北市文山區萬安街３３號,9,3701202498,25.0006158,121.5708221,OK
37,台北市文山區木新路３段７０號,9,3701202505,24.9825014,121.5636302,OK
38,台北市文山區羅斯福路５段１６７號,9,3701202514,25.003157,121.538868,OK
39,台北市文山區木柵路３段１０號（實際使用第一層）,9,3701202523,24.988422,121.564494,OK
40,基隆市中正區新豐街２７６３號,0,3711010019,,,ZERO_RESULTS
41,基隆市中正區義二路６６號２樓,9,3711010037,25.1318141,121.7460267,OK
42,基隆市中正區中正路２１５號,9,3711010055,25.1433423,121.7611463,OK
43,基隆市中正區義二路８４號１樓,9,3711010064,25.1321666,121.7462582,OK
44,基隆市中正區八斗街１號,9,3711010091,25.1401712,121.7961911,OK
45,基隆市中正區祥豐街１１號,9,3711010108,25.1417352,121.7609355,OK
46,基隆市中正區義二路８３號２樓,9,3711010144,25.1324236,121.7461911,OK
47,基隆市中正區信一路１６８號,9,3711010162,25.1303197,121.7454453,OK
48,基隆市中正區祥豐街１００號,9,3711010171,25.142416,121.7647149,OK
49,基隆市中正區北寧路１１號,9,3711010180,25.1511208,121.7726239,OK
50,基隆市中正區義二路１６４號之１、正義路２９巷１１號之４,9,3711010199,25.13321,121.7468236,OK
51,基隆市安樂區基金一路２０２號１樓,9,3711011267,25.1417193,121.7102307,OK
52,基隆市中正區新豐街３２３巷１９號,9,3711011285,25.1352279,121.7863792,OK
53,基隆市中正區新豐街２５１巷６弄１４號,9,3711011301,25.1355651,121.7889178,OK
54,基隆市中正區祥豐街１２１號２樓,9,3711011310,25.1422845,121.7641465,OK
55,基隆市七堵區明德一路７５號,9,3711020015,25.098273,121.716285,OK
56,基隆市七堵區明德一路１８６－１號１樓,9,3711020024,25.0974868,121.7130706,OK
57,基隆市七堵區南興路６６－５號,9,3711020033,25.0969568,121.7133258,OK
58,基隆市七堵區明德一路１３４號,9,3711020060,25.098511,121.715647,OK
59,基隆市七堵區百三街５２號,9,3711020104,25.0817716,121.6959298,OK
60,基隆市七堵區福二街２４２巷２號,9,3711020131,25.0844603,121.6962663,OK
61,基隆市七堵區自治北街１５號,9,3711020168,25.097563,121.712098,OK
62,基隆市七堵區開元路７１號,9,3711021174,25.0959616,121.7134226,OK
63,基隆市七堵區福二街９１號１樓,9,3711021192,25.0820185,121.6962493,OK
64,基隆市七堵區光明路５號１樓、７號１樓,9,3711021209,25.0984067,121.7168434,OK
65,基隆市七堵區光明路５號２樓、７號２樓,9,3711021218,25.0984067,121.7168434,OK
66,基隆市暖暖區源遠路２２７號,9,3711030011,25.0986797,121.7537821,OK
67,基隆市暖暖區暖暖街２１５號,9,3711031063,25.0985652,121.7352005,OK
68,基隆市暖暖區源遠路２０１號,9,3711031072,25.0983993,121.7517998,OK
69,基隆市暖暖區源遠路２３９號,9,3711031081,25.0987484,121.7544213,OK
70,基隆市暖暖區源遠路３１５號,9,3711031090,25.0993777,121.7573567,OK
71,基隆市暖暖區暖暖街１５７號１樓,9,3711031107,25.099971,121.7366146,OK
72,基隆市暖暖區暖暖街５７２號１樓、５７６號１樓,9,3711031116,25.0927386,121.7368014,OK
73,基隆市仁愛區劉銘傳路４１號,9,3711040017,25.1269541,121.7510218,OK
74,基隆市仁愛區孝三路３１號,9,3711040026,25.129298,121.738531,OK
75,基隆市仁愛區孝一路４０號２樓,0,3711040071,,,OVER_QUERY_LIMIT
76,基隆市仁愛區仁五路６號２樓,9,3711040099,25.1272009,121.741507,OK
77,基隆市仁愛區愛四路７２號２樓,9,3711040142,25.129425,121.744643,OK
78,基隆市仁愛區愛四路６８號２樓,9,3711040151,25.129362,121.74457,OK
79,基隆市仁愛區南榮路６９號２樓,9,3711040204,25.126113,121.742896,OK
80,基隆市仁愛區孝一路５５號２樓,9,3711040231,25.130086,121.741129,OK
81,基隆市仁愛區愛三路１４號,9,3711040259,25.1272943,121.742138,OK
82,基隆市仁愛區愛二路６４號２樓,9,3711040268,25.1293205,121.7424416,OK
83,基隆市仁愛區仁二路１００號１樓,9,3711040311,25.1276108,121.7478663,OK
84,基隆市仁愛區南榮路３號２樓,9,3711040357,25.1270869,121.7421652,OK
85,基隆市仁愛區仁一路２７７號２樓,9,3711040366,25.1283599,121.747361,OK
86,基隆市仁愛區仁三路１３號２樓、３樓,9,3711041416,25.12795,121.743871,OK
87,基隆市仁愛區仁二路２０８號之１（２樓）,9,3711041425,25.1289624,121.7445305,OK
88,基隆市仁愛區仁二路９１號,9,3711041434,25.127476,121.748787,OK
89,基隆市仁愛區仁一路２７７號４樓,9,3711041443,25.1283599,121.747361,OK
90,基隆市仁愛區成功一路１１９號及１２１號１樓,7,3711041452,25.1187161,121.7451927,OK
91,基隆市仁愛區仁四路１４號,9,3711041489,25.1276573,121.7426912,OK
92,基隆市仁愛區南新街５７號,9,3711041498,25.1237663,121.7438201,OK
93,基隆市仁愛區孝三路８７號,9,3711041508,25.130705,121.739468,OK
94,基隆市仁愛區忠二路１９號１－２樓,0,3711041523,,,OVER_QUERY_LIMIT
95,基隆市仁愛區仁二路１１號(１F),9,3711041532,25.1273916,121.7506033,OK
96,基隆市中山區安一路６號,9,3711050013,25.131632,121.737469,OK
97,基隆市中山區復旦路１７－４號,9,3711050040,25.145757,121.739054,OK
98,基隆市中山區中華路５９號,9,3711050059,25.1463869,121.73838,OK
99,基隆市中山區西定路３６號,9,3711050095,25.1323241,121.735532,OK
100,基隆市中山區西定路７號,9,3711050102,25.1319729,121.7352467,OK
101,基隆市中山區西定路４４３號,9,3711050111,25.1402259,121.728079,OK
102,基隆市中山區中山一路１９號,9,3711050120,25.130326,121.736783,OK
103,基隆市中山區安一路２號２樓,9,3711050148,25.1315238,121.7375283,OK
104,基隆市中山區中山二路６５巷７號,9,3711050166,25.138131,121.740192,OK
105,基隆市中山區復興路１８５號,9,3711050175,25.146184,121.72621,OK
106,基隆市中山區中和路１６８巷２弄１８號１樓,9,3711051190,25.1496237,121.7177286,OK
107,基隆市中山區安一路１３號,9,3711051207,25.1313155,121.7372448,OK
108,基隆市中山區西定路１５３號２樓,9,3711051261,25.1347889,121.734108,OK
109,基隆市安樂區樂利三街２３５號,9,3711060037,25.1266888,121.7149074,OK
110,基隆市安樂區安一路１０５號,9,3711060082,25.131401,121.735034,OK
111,基隆市安樂區安樂路２段１４５號,9,3711060108,25.1213139,121.724197,OK
112,基隆市安樂區武嶺街９５號,9,3711060153,25.1396967,121.7111592,OK
113,基隆市安樂區麥金路１９７號２樓,9,3711060162,25.121285,121.7214144,OK
114,基隆市安樂區樂利三街２巷９號,9,3711060171,25.1291756,121.7196298,OK
115,基隆市安樂區武嶺街８９號,9,3711061187,25.1399493,121.7109738,OK
116,基隆市安樂區樂利三街１２４之１號２樓,9,3711061203,25.126415,121.7156464,OK
117,基隆市安樂區基金三路５２之１號、５２之２號均含１至２樓,9,3711061221,25.1541822,121.6969451,OK
118,基隆市信義區東明路１５９─１號,0,3711070122,,,ZERO_RESULTS
119,基隆市信義區東信路１８８號,9,3711070159,25.1283564,121.7637027,OK
120,基隆市信義區信二路２４─３號１樓,6,3711070168,25.1284336,121.7822278,OK
121,基隆市信義區東明路２２號,0,3711070177,,,OVER_QUERY_LIMIT
122,基隆市信義區義九路１號,0,3711071209,,,OVER_QUERY_LIMIT
123,基隆市信義區信二路９９－１號１樓,0,3711071218,,,OVER_QUERY_LIMIT
124,基隆市信義區信二路１５０號,9,3711071227,25.1293518,121.7544427,OK
125,基隆市信義區義七路２６巷１－４號,9,3711071236,25.1290417,121.7528901,OK
126,基隆市信義區東信路７８號,9,3711071245,25.1276627,121.7673562,OK
127,新北市板橋區民族路２３３號,9,3731010015,25.0071943,121.4696988,OK
128,新北市板橋區府中路１２１號,9,3731010051,25.009454,121.456266,OK
129,新北市板橋區館前西路４５號,9,3731010060,25.0066257,121.4580348,OK
130,新北市板橋區府中路５１號２樓,9,3731010079,25.0089787,121.4584092,OK
131,新北市板橋區德興街３７巷２０號１樓,9,3731010097,24.99384,121.4539065,OK
132,新北市板橋區成都街２９號,9,3731010104,25.0049899,121.4610066,OK
133,新北市板橋區南雅南路１段２３號１樓,9,3731010113,25.0067842,121.456376,OK
134,新北市板橋區大智街１５號,9,3731010140,25.014782,121.45557,OK
135,新北市板橋區中山路２段４９９號１樓,9,3731010168,25.021172,121.482571,OK
136,新北市板橋區漢生西路２３號,9,3731010177,25.018179,121.463337,OK
137,新北市板橋區中山路２段３８０號１樓,9,3731010186,25.0202999,121.482114,OK
138,新北市板橋區館前東路９８－３號,9,3731010195,25.007466,121.4627304,OK
139,新北市板橋區民權路２５８－６號,9,3731010202,25.0151819,121.457942,OK
140,新北市板橋區三民路２段２０３－５號,9,3731010211,25.0134837,121.479211,OK
141,新北市板橋區文化路１段１８８巷１６號,9,3731010220,25.0194625,121.4661605,OK
142,新北市板橋區忠孝路１０６號,9,3731010239,25.002135,121.4621414,OK
143,新北市板橋區中正路２３４號,9,3731010248,25.0188349,121.455848,OK
144,新北市板橋區府中路７號,0,3731010257,,,OVER_QUERY_LIMIT
145,新北市板橋區民族路１７３號,9,3731010266,25.0076601,121.4686037,OK
146,新北市板橋區長江路２段２３６號,9,3731010284,25.0324314,121.4687511,OK
147,新北市板橋區北門街５６號２樓,9,3731010300,25.011387,121.4567213,OK
148,新北市板橋區文化路１段３號２樓,9,3731010328,25.009742,121.457748,OK
149,新北市板橋區文化路２段２０號２樓,9,3731010337,25.0243304,121.469035,OK
150,新北市板橋區中山路２段３０８號,9,3731010346,25.018903,121.480004,OK
151,新北市板橋區裕民街３６巷１號,9,3731010364,25.0290571,121.4617585,OK
152,新北市板橋區南雅南路２段１１─３號１樓,5,3731010373,25.0114095,121.4618415,OK
153,新北市板橋區懷德街１２３號,9,3731010382,25.0311562,121.4788377,OK
154,新北市板橋區南雅南路１段７４號,9,3731010408,25.0051353,121.4553147,OK
155,新北市板橋區中山路２段８６號２樓,9,3731010435,25.0161949,121.4751193,OK
156,新北市板橋區民權路２１９號,9,3731010444,25.015154,121.45757,OK
157,新北市板橋區北門街３０號,9,3731010480,25.0109228,121.4573734,OK
158,新北市板橋區文化路１段３５５號１.２樓,9,3731010515,25.021188,121.466576,OK
159,新北市板橋區府中路８８號,9,3731010551,25.0095969,121.456238,OK
160,新北市板橋區中正路２３３號,9,3731010560,25.0178897,121.4558741,OK
161,新北市板橋區莒光路８６號,9,3731010597,25.0240154,121.4717901,OK
162,新北市板橋區文化路２段３２４號,9,3731010604,25.0300446,121.4726904,OK
163,新北市板橋區中正路２６５號,9,3731010622,25.0186075,121.4556763,OK
164,新北市板橋區四維路１３７巷１弄１號１樓,9,3731010659,25.02514,121.46494,OK
165,新北市板橋區府中路１００號,9,3731010668,25.009587,121.455987,OK
166,新北市板橋區民族路２０５號,9,3731010702,25.0074486,121.4690491,OK
167,新北市板橋區館前西路１５０之１號,9,3731010739,25.0084436,121.4555699,OK
168,新北市板橋區南雅西路２段２號２樓,9,3731010748,25.0089629,121.453381,OK
169,新北市板橋區文化路２段３３３號,9,3731010757,25.030539,121.472302,OK
170,新北市板橋區莒光路１６５巷６號１樓,9,3731010800,25.0241142,121.4741958,OK
171,新北市板橋區中山路２段１６６號,9,3731010819,25.017144,121.476986,OK
172,新北市板橋區忠孝路１７７號,9,3731010828,25.0026979,121.464121,OK
173,新北市板橋區民族路４１號,9,3731010837,25.00964,121.462678,OK
174,新北市板橋區長江路２段２８０－１３號,9,3731010846,25.0329545,121.4703564,OK
175,新北市板橋區四川路１段２８６巷３號,9,3731010926,25.000861,121.45838,OK
176,新北市板橋區中正路３１號１樓及地下室,9,3731010944,25.0128769,121.456093,OK
177,新北市板橋區南雅西路２段９８－４號,9,3731010953,25.011566,121.452447,OK
178,新北市板橋區篤行路３段１１號,9,3731010962,24.987467,121.429354,OK
179,新北市板橋區裕民街１１８號,9,3731011003,25.0277368,121.4592319,OK
180,新北市板橋區大智街７３號１樓,9,3731011067,25.0155344,121.4535419,OK
181,新北市板橋區裕民街１０８號１樓,9,3731011076,25.0279002,121.4597401,OK
182,新北市板橋區重慶路８３號,9,3731011094,25.0064946,121.4619741,OK
183,新北市板橋區後菜園街１９號,9,3731011110,25.010073,121.456942,OK
184,新北市板橋區華興街８３號１樓,9,3731011174,25.0050339,121.4568398,OK
185,新北市板橋區民族路２３１號,9,3731011218,25.0072428,121.4696246,OK
186,新北市板橋區館前西路２５７號１、２樓,9,3731011254,25.0085408,121.454246,OK
187,新北市板橋區四維路１７９號,9,3731011316,25.02644,121.464275,OK
188,新北市板橋區重慶路７６巷６號,9,3731011343,25.0064159,121.46127,OK
189,新北市板橋區龍興街７１巷６號,9,3731011352,25.0020109,121.443527,OK
190,新北市板橋區文化路１段２７７號１樓,9,3731011414,25.0185378,121.4646939,OK
191,新北市板橋區陽明街１１０號１樓,9,3731011423,25.0233749,121.463934,OK
192,新北市板橋區重慶路２３９號,9,3731011441,25.0007358,121.4631691,OK
193,新北市板橋區溪北路８３號,9,3731011549,24.989707,121.428587,OK
194,新北市板橋區重慶路２０５，２０５－１號１，２樓,9,3731011558,25.0016561,121.4629283,OK
195,新北市板橋區仁化街８７號１樓,9,3731011576,25.032099,121.4761719,OK
196,新北市板橋區民治街５２巷５弄１號,9,3731011585,25.0330889,121.4794217,OK
197,新北市板橋區實踐路９６號１樓，２樓及９８號１樓，２樓,9,3731011629,25.004833,121.463986,OK
198,新北市板橋區漢生西路７１號,9,3731011638,25.018737,121.4628,OK
199,新北市板橋區四川路１段３５９號,9,3731011665,24.9997615,121.4584264,OK
200,新北市板橋區中正路９１號,9,3731011674,25.0144509,121.456408,OK
201,新北市板橋區莒光路１５７號一樓,9,3731011718,25.0241381,121.4735897,OK
202,新北市板橋區金門街３０１號,9,3731011727,24.9864681,121.4301187,OK
203,新北市板橋區國光路６３號１樓,9,3731011745,25.0182251,121.4588781,OK
204,新北市板橋區懷德街１８１巷１號１樓、３號１樓,9,3731011816,25.030055,121.4795176,OK
205,新北市板橋區忠孝路２１３號１樓、２樓,9,3731011834,25.0027765,121.4653998,OK
206,新北市板橋區莊敬路１４９號,9,3731011852,25.0248002,121.4716603,OK
207,新北市板橋區三民路２段１１３號,9,3731011941,25.01586,121.479324,OK
208,新北市板橋區忠孝路１２號,9,3731011950,25.0017586,121.4597336,OK
209,新北市板橋區雙十路２段１５２號１樓,9,3731012037,25.0293897,121.4734072,OK
210,新北市板橋區國慶路１８１號,9,3731012126,24.996391,121.462679,OK
211,新北市板橋區雙十路３段３５號,9,3731012153,25.0316452,121.470563,OK
212,新北市板橋區松柏街４１號,9,3731012162,25.0304062,121.4754818,OK
213,新北市板橋區漢生東路３４８號１樓,9,3731012171,25.0071868,121.4719853,OK
214,新北市板橋區龍興街１５號１樓,9,3731012206,24.9997297,121.442729,OK
215,新北市板橋區文化路２段１２號１樓,9,3731012215,25.024132,121.4689153,OK
216,新北市板橋區四川路２段９９－７號,9,3731012251,24.994451,121.452319,OK
217,新北市板橋區四川路１段２５３號１樓,9,3731012260,25.002397,121.4597434,OK
218,新北市板橋區松柏街９４號１樓,9,3731012304,25.0306769,121.4768206,OK
219,新北市板橋區南雅南路１段９５號１、２樓,9,3731013338,25.0051672,121.45556,OK
220,新北市板橋區文化路２段２３號１樓,9,3731013347,25.0247877,121.4686792,OK
221,新北市板橋區文化路１段１２５號,9,3731013365,25.0150438,121.4619057,OK
222,新北市板橋區雙十路２段１１８號１．２樓,9,3731013392,25.0288425,121.4742503,OK
223,新北市板橋區實踐路１５９號,9,3731013418,25.004085,121.464474,OK
224,新北市板橋區國光路２１５號,9,3731013490,25.0187607,121.4622565,OK
225,新北市板橋區龍興街８號,9,3731013525,24.9995916,121.442886,OK
226,新北市板橋區英士路４３號,9,3731013552,25.0248777,121.4614542,OK
227,新北市板橋區四川路１段１４９號,9,3731013561,25.0043361,121.4600489,OK
228,新北市板橋區中山路２段４０８號,9,3731013589,25.0207615,121.4827785,OK
229,新北市板橋區文化路１段２１９－１號〈共４層使用１至３樓〉,9,3731013614,25.0173109,121.4637025,OK
230,新北市板橋區仁化街６４巷３號２樓,9,3731013623,25.0316405,121.4760274,OK
231,新北市板橋區文化路１段１９０－１號１樓、２樓,9,3731013650,25.01971,121.46617,OK
232,新北市板橋區三民路２段１５７號,9,3731013669,25.0148511,121.4792544,OK
233,新北市板橋區重慶路３０８巷１０號,9,3731013678,24.997923,121.463619,OK
234,新北市板橋區雙十路２段６號１樓,9,3731013687,25.0260314,121.47706,OK
235,新北市板橋區文聖街２３號及２５號１樓,9,3731013696,25.0320501,121.4759114,OK
236,新北市板橋區文化路１段７號１、２樓,9,3731013703,25.0098339,121.457757,OK
237,新北市板橋區四川路１段５７號２樓,9,3731013712,25.0061711,121.4596195,OK
238,新北市板橋區莒光路５３號１樓,9,3731013758,25.0243919,121.4708735,OK
239,新北市板橋區中山路２段２２４號,9,3731013776,25.017879,121.4781727,OK
240,新北市板橋區重慶路３００號,9,3731013794,24.9985462,121.4636515,OK
241,新北市板橋區民生路１段１９號１樓,9,3731013801,25.0113752,121.477474,OK
242,新北市板橋區新府路８８號２樓,9,3731013810,25.0109107,121.4652469,OK
243,新北市板橋區中正路４３號１，２樓,9,3731013829,25.0133955,121.4561911,OK
244,新北市板橋區溪北路１３０號,9,3731013838,24.9888182,121.4293608,OK
245,新北市板橋區新海路１１５號,9,3731013847,25.0228396,121.4610446,OK
246,新北市板橋區中正路２７８號,9,3731013856,25.020059,121.455235,OK
247,新北市板橋區中正路２３４號之１,9,3731013874,25.0188349,121.455848,OK
248,新北市板橋區大觀路２段１４２－４號,9,3731013909,24.9990216,121.4422921,OK
249,新北市板橋區忠孝路４６號,9,3731013936,25.0018869,121.460602,OK
250,新北市板橋區篤行路２段７８號１－２樓,9,3731013963,24.991979,121.431447,OK
251,新北市板橋區中山路２段１０８號１、２樓,9,3731013981,25.016588,121.47588,OK
252,新北市板橋區文化路１段１３４號,9,3731013990,25.0187689,121.46524,OK
253,新北市板橋區文化路１段３５９號１，２，３，４樓,9,3731014013,25.021283,121.466601,OK
254,新北市板橋區民生路１段３號６、７樓,9,3731014022,25.011453,121.477019,OK
255,新北市板橋區中山路２段２００號,9,3731014031,25.017595,121.477716,OK
256,新北市板橋區金門街２４９號,9,3731014059,24.989041,121.432033,OK
257,新北市板橋區中山路１段３０號１樓,9,3731014068,25.008477,121.460466,OK
258,新北市板橋區文化路２段１７號,9,3731014077,25.024491,121.468491,OK
259,新北市板橋區民權路２０２巷９弄１４號１樓,9,3731014102,25.0156179,121.4599978,OK
260,新北市板橋區陽明街５號１樓,9,3731014111,25.021508,121.466612,OK
261,新北市板橋區忠孝路９７號,9,3731014120,25.0022906,121.4623643,OK
262,新北市板橋區文化路２段１８號１樓,9,3731014148,25.0242887,121.4690029,OK
263,新北市板橋區新海路６８號,9,3731014157,25.021768,121.461968,OK
264,新北市板橋區雨農路３０號１樓、３２號１樓、２樓,9,3731014228,25.0242674,121.461249,OK
265,新北市板橋區館前西路９８號,9,3731014237,25.0073304,121.4572426,OK
266,新北市板橋區貴興路８０號１樓,9,3731014255,25.002831,121.4562088,OK
267,新北市板橋區中山路２段９９號１、２樓,9,3731014264,25.0163295,121.4743064,OK
268,新北市板橋區金門街２９５號１樓,9,3731014282,24.9866472,121.4303255,OK
269,新北市板橋區光武街１７號１樓,9,3731014291,25.0247418,121.4679841,OK
270,新北市板橋區民族路９７號１樓,9,3731014308,25.008324,121.466555,OK
271,新北市板橋區莊敬路２２９號１樓,9,3731014326,25.0222129,121.471844,OK
272,新北市板橋區實踐路１９３號１樓,9,3731014335,25.003214,121.4646431,OK
273,新北市板橋區仁化街４２巷７號１樓,9,3731014344,25.0313549,121.475555,OK
274,新北市板橋區吳鳳路５０巷４１號１樓,9,3731014371,25.0304059,121.4688565,OK
275,新北市板橋區四維路２２７號１樓、２樓,9,3731014380,25.0273181,121.463579,OK
276,新北市板橋區溪北路２５號１樓,9,3731014399,24.990338,121.427065,OK
277,新北市板橋區陽明街４６-１號１樓,9,3731014406,25.0220682,121.465734,OK
278,新北市板橋區國光路１８１號１樓及夾層,9,3731014433,25.0185642,121.4608263,OK
279,新北市板橋區中山路２段８４之４號１樓、２樓,9,3731014460,25.016098,121.4749379,OK
280,新北市板橋區國慶路１６１號（１樓）,9,3731014479,24.9962129,121.461813,OK
281,新北市板橋區館前東路１０８號１樓及２樓,9,3731014488,25.0075498,121.463186,OK
282,新北市板橋區雙十路２段１５８號１樓及２樓,9,3731014497,25.029471,121.4733173,OK
283,新北市板橋區金門街５４號１樓及夾層,9,3731014504,24.9931401,121.4330339,OK
284,新北市板橋區新海路１８０號１樓,9,3731014513,25.023692,121.460776,OK
285,新北市板橋區陽明街２８３號１樓,9,3731014522,25.0262829,121.4620014,OK
286,新北市板橋區忠孝路５２號１樓,9,3731014531,25.0018979,121.460812,OK
287,新北市板橋區漢生東路２８１號１樓２樓、２８３號１樓２樓,9,3731014559,25.0089627,121.4715064,OK
288,新北市板橋區民生路２段２３８號１－４樓,9,3731014568,25.0230706,121.4685772,OK
289,新北市板橋區新府路１之２號２樓,9,3731014577,25.0123833,121.4641233,OK
290,新北市板橋區中正路２０７號１、２樓,9,3731014586,25.0174223,121.4561529,OK
291,新北市板橋區自由路５３號１樓,9,3731014595,25.0238686,121.4657627,OK
292,新北市板橋區忠孝路６１號１樓、６３號１樓,9,3731014602,25.0021554,121.4615963,OK
293,新北市板橋區實踐路９３巷１０號１樓,9,3731014611,25.005323,121.464503,OK
294,新北市板橋區重慶路２７６之１１號１樓及２樓,9,3731014639,24.9999179,121.4631071,OK
295,新北市板橋區仁化街４０號１樓,9,3731014648,25.0315999,121.4749626,OK
296,新北市板橋區文化路１段２７號１樓－３樓、２９號１樓－３樓,9,3731014657,25.0128109,121.4600402,OK
297,新北市板橋區中正路３１７號,9,3731014666,25.019878,121.4551,OK
298,新北市板橋區長江路２段１６５、１６７號１樓,9,3731014675,25.032118,121.4663032,OK
299,新北市板橋區篤行路二段１０４號、１０６號（１、２樓）,9,3731014684,24.9912979,121.431298,OK
300,新北市板橋區南雅南路２段１５８號１樓,9,3731014693,24.9954958,121.4513892,OK
301,新北市板橋區中山路１段２６７號(１、２樓),9,3731014700,25.0135588,121.4688892,OK
302,新北市板橋區中山路２段３６９號（１樓）,9,3731014719,25.0193889,121.479824,OK
303,新北市板橋區文化路１段８５號１、２樓,9,3731014728,25.0140838,121.4610328,OK
304,新北市板橋區新民街２９號１樓及２樓,9,3731014746,25.0103689,121.464173,OK
305,新北市板橋區陽明街６９號１樓,9,3731014755,25.022763,121.464203,OK
306,新北市板橋區民生路２段２４９號２樓,9,3731014764,25.0230554,121.4683031,OK
307,新北市板橋區溪城路８５號１樓及２樓,9,3731014773,24.9835693,121.4269969,OK
308,新北市板橋區民生路３段３２之１號１樓,9,3731014782,25.024822,121.467679,OK
309,新北市板橋區莒光路２１號１、２樓,9,3731014791,25.0248056,121.4700944,OK
310,新北市板橋區文化路１段１３８號１樓、２樓,9,3731014808,25.0188809,121.465364,OK
311,新北市板橋區文化路１段１３８號１樓、２樓,9,3731014817,25.0188809,121.465364,OK
312,新北市板橋區文化路２段２４１號１、２樓,9,3731014826,25.0287339,121.471058,OK
313,新北市板橋區雙十路２段１５８號１樓及２樓,9,3731014844,25.029471,121.4733173,OK
314,新北市板橋區大仁街７０號１樓,9,3731014853,25.016497,121.454503,OK
315,新北市板橋區文化路２段１８２巷３弄４６－３號１樓、２樓,0,3731014862,,,ZERO_RESULTS
316,新北市板橋區莊敬路２２９號１樓,9,3731014871,25.0222129,121.471844,OK
317,新北市板橋區漢生東路２９３號１樓及２樓,9,3731014880,25.0085152,121.4715518,OK
318,新北市板橋區篤行路２段１０４號、１０６號（１２樓）,9,3731014899,24.9912979,121.431298,OK
319,新北市三重區溪尾街２０２號,9,3731020039,25.0810518,121.4880738,OK
320,新北市三重區三民街６５－３號１樓,9,3731020048,25.062563,121.485812,OK
321,新北市三重區三和路４段３６０－２號,9,3731020057,25.0783762,121.4831696,OK
322,新北市三重區車路頭街２２號,9,3731020066,25.070785,121.483483,OK
323,新北市三重區三和路２段１７４號,9,3731020084,25.0687108,121.4989564,OK
324,新北市三重區三和路４段３６４號,9,3731020119,25.0784829,121.4831611,OK
325,新北市三重區大同南路５１號,9,3731020128,25.060045,121.495695,OK
326,新北市三重區重新５段５７５號,9,3731020146,25.046061,121.470042,OK
327,新北市三重區忠孝路１段１１７號,9,3731020155,25.072263,121.488868,OK
328,新北市三重區大智街２３８－２號１樓,9,3731020164,25.072749,121.489357,OK
329,新北市三重區重新路３段３１－１號,9,3731020191,25.0615703,121.4945326,OK
330,新北市三重區三民街３１１號１樓,9,3731020208,25.0690765,121.4780321,OK
331,新北市三重區中正北路６１號１樓,9,3731020217,25.063196,121.490613,OK
332,新北市三重區正義北路２９３號１樓,9,3731020253,25.0706792,121.4949557,OK
333,新北市三重區碧華街３６２號,9,3731020280,25.0841375,121.4906771,OK
334,新北市三重區正義北路２５４號,9,3731020299,25.0684316,121.49591,OK
335,新北市三重區三和路２段６７號,9,3731020333,25.068013,121.500273,OK
336,新北市三重區大同北路８７號,9,3731020342,25.06393,121.49479,OK
337,新北市三重區中正北路３４２號,9,3731020360,25.0691858,121.4782143,OK
338,新北市三重區信義街４６號１樓,9,3731020379,25.065163,121.5003576,OK
339,新北市三重區重新路３段１０９號,9,3731020388,25.059903,121.4909776,OK
340,新北市三重區集賢路１２７號１樓、２樓,9,3731020397,25.0895654,121.4898503,OK
341,新北市三重區正義北路１０號１、２樓,9,3731020404,25.0627973,121.4975498,OK
342,新北市三重區自強路１段２８４號,9,3731020431,25.068027,121.491555,OK
343,新北市三重區正義北路４０號,9,3731020440,25.0635076,121.4973348,OK
344,新北市三重區大榮街３號,9,3731020495,25.0632032,121.4979033,OK
345,新北市三重區中華路６０號,9,3731020520,25.06221,121.483227,OK
346,新北市三重區五華街９７號,9,3731020548,25.0837135,121.491732,OK
347,新北市三重區龍門路１４５號,9,3731020557,25.0727997,121.4985255,OK
348,新北市三重區三陽路４７號１樓,9,3731020575,25.059029,121.484892,OK
349,新北市三重區龍門路６７號,9,3731020584,25.0723316,121.4967577,OK
350,新北市三重區五華街２３號１樓,9,3731020593,25.0807619,121.4948459,OK
351,新北市三重區中正北路３５６號１樓,9,3731020619,25.069304,121.477427,OK
352,新北市三重區正義北路２６５號,9,3731020628,25.0699672,121.4955048,OK
353,新北市三重區重陽路１段１０８號,9,3731020637,25.0596749,121.486442,OK
354,新北市三重區自強路４段６０號,9,3731020682,25.0784572,121.490041,OK
355,新北市三重區文化北路１４８號,9,3731020708,25.067154,121.4981382,OK
356,新北市三重區溪尾街１１１號２樓,9,3731020717,25.0786907,121.4897249,OK
357,新北市三重區重新路２段２２號,9,3731020744,25.062517,121.499339,OK
358,新北市三重區仁愛街３９９號,9,3731020780,25.0809459,121.491097,OK
359,新北市三重區重新路５段６０９巷２０號７樓－６,9,3731020799,25.046025,121.4670144,OK
360,新北市三重區正義北路２４０號,9,3731020904,25.0681137,121.4959769,OK
361,新北市三重區中央南路１６號１樓,9,3731020913,25.0627717,121.5013405,OK
362,新北市三重區重新路３段８９號,9,3731020922,25.06013,121.4913971,OK
363,新北市三重區電信街９３號,9,3731020977,25.0582732,121.4955801,OK
364,新北市三重區正義北路３６６－３號１、２樓,9,3731020986,25.071252,121.4936063,OK
365,新北市三重區忠孝路２段４２號,9,3731020995,25.054635,121.4703485,OK
366,新北市三重區福德北路３３號,9,3731021018,25.064747,121.502532,OK
367,新北市三重區車路頭街１４１號１樓,9,3731021054,25.0765304,121.4840413,OK
368,新北市三重區正義北路１０３號,9,3731021081,25.0655339,121.4970733,OK
369,新北市三重區自強路１段９９號,9,3731021116,25.0665443,121.4957589,OK
370,新北市三重區正義北路１５４號１．２樓及３樓之二,9,3731021134,25.0676126,121.4823708,OK
371,新北市三重區力行路１段２５１號,9,3731021143,25.0708682,121.4826263,OK
372,新北市三重區三和路３段７５號,9,3731021152,25.072047,121.494845,OK
373,新北市三重區錦通里信義街１３號１樓,9,3731021287,25.0647007,121.4995917,OK
374,新北市三重區重陽路１段４９號及５１號１樓,9,3731021296,25.058252,121.486914,OK
375,新北市三重區中正北路１５０號,9,3731021312,25.065683,121.484685,OK
376,新北市三重區仁愛街２７６號,9,3731021376,25.0787572,121.492536,OK
377,新北市三重區三民街２６９號,9,3731022391,25.0680477,121.4794107,OK
378,新北市三重區大同南路６２號,9,3731022417,25.059672,121.496264,OK
379,新北市三重區中華路１號,9,3731022426,25.060619,121.483653,OK
380,新北市三重區永福街５０號１樓,9,3731022453,25.078052,121.4817467,OK
381,新北市三重區中正北路１３９號,9,3731022471,25.0674043,121.4828846,OK
382,新北市三重區力行路２段１６４號,9,3731022506,25.0767698,121.4828529,OK
383,新北市三重區三民街９１號,9,3731022515,25.063262,121.48556,OK
384,新北市三重區重陽路３段１０７號１樓,9,3731022560,25.068333,121.490751,OK
385,新北市三重區仁愛街６７２號,9,3731022588,25.0802395,121.4822699,OK
386,新北市三重區重陽路１段７３號１樓,9,3731022597,25.058861,121.486966,OK
387,新北市三重區三和路４段３１６號,9,3731022613,25.077921,121.484107,OK
388,新北市三重區忠孝路１段８１號１樓,9,3731022622,25.072202,121.49025,OK
389,新北市三重區集美街１５６號１樓,9,3731022631,25.0531311,121.4898528,OK
390,新北市三重區正義北路３７０號,9,3731022640,25.0713349,121.4934757,OK
391,新北市三重區重陽路１段１３０巷１弄９號４樓,9,3731022695,25.0607059,121.486444,OK
392,新北市三重區永福街２５２號,9,3731022702,25.07485,121.483926,OK
393,新北市三重區溪尾街１６４號１樓,9,3731022757,25.080151,121.488637,OK
394,新北市三重區雙園街１０９號,9,3731022793,25.0672905,121.4936211,OK
395,新北市三重區中華路８６號,9,3731022800,25.062854,121.483266,OK
396,新北市三重區仁愛街４９９號,9,3731022819,25.0823018,121.4881394,OK
397,新北市三重區中央南路１２號１樓,9,3731022828,25.062925,121.5013177,OK
398,新北市三重區重新路１段８２號１樓,9,3731022837,25.06343,121.5017175,OK
399,新北市三重區重新路４段３３號１樓,9,3731022846,25.057904,121.48828,OK
400,新北市三重區三民街８１號１樓,9,3731022855,25.063087,121.4857829,OK
401,新北市三重區集美街１１９號,9,3731022864,25.052717,121.490429,OK
402,新北市三重區中正北路２８號１樓,9,3731022873,25.063358,121.488083,OK
403,新北市三重區仁愛街４９７號,9,3731022882,25.0823033,121.488193,OK
404,新北市三重區三和路４段２３３號２樓,9,3731022908,25.0799339,121.481188,OK
405,新北市三重區重新路２段８號,9,3731022917,25.062585,121.49978,OK
406,新北市三重區大榮街３８號１樓,9,3731022926,25.063665,121.498647,OK
407,新北市三重區重新路４段５３號,9,3731022935,25.057541,121.487729,OK
408,新北市三重區溪尾街３２６號１樓,9,3731022962,25.0848452,121.4879804,OK
409,新北市三重區忠孝路３段３２號１．２樓,9,3731022971,25.0671079,121.481467,OK
410,新北市三重區集美街１５３號,9,3731022980,25.053063,121.4909,OK
411,新北市三重區三和路３段１０２號１、２樓、１０４號１、２樓,9,3731022999,25.0731367,121.4972796,OK
412,新北市三重區中正南路８９號１樓,9,3731023012,25.0582361,121.4940302,OK
413,新北市三重區正義北路３１６號１、２樓,9,3731023021,25.0689682,121.4791745,OK
414,新北市三重區三和路３段１０１巷１７１號１樓,9,3731023049,25.073845,121.49936,OK
415,新北市三重區自強路１段１９１號１樓,9,3731023058,25.068259,121.491994,OK
416,新北市三重區五華街１０６號１樓、２樓,9,3731023067,25.0826349,121.4924804,OK
417,新北市三重區中正北路２１１號１樓,9,3731023076,25.070255,121.476534,OK
418,新北市三重區重陽路３段１４４號１、２、３樓,9,3731023085,25.067474,121.489383,OK
419,新北市三重區重新路２段４２號３樓,9,3731023094,25.0623469,121.4987638,OK
420,新北市三重區集美街１２６巷３５號１樓,9,3731023101,25.053646,121.490424,OK
421,新北市三重區五華街２３８號、２４０號１樓,9,3731023110,25.0859793,121.4893594,OK
422,新北市三重區三信路２０８號１樓、２１０號１樓,9,3731023138,25.0860862,121.4879838,OK
423,新北市三重區三和路４段３１４號１樓,9,3731023147,25.0778922,121.4841427,OK
424,新北市三重區長安街１１０號１樓,9,3731023165,25.0678577,121.5025528,OK
425,新北市三重區重新路４段６號１樓、２樓,9,3731023174,25.058118,121.4893092,OK
426,新北市三重區忠孝路３段４５號１樓、２樓,9,3731023183,25.0662004,121.48089,OK
427,新北市三重區重陽路１段１２２號２樓,9,3731023192,25.0601849,121.4865618,OK
428,新北市三重區三和路２段７９號１樓,9,3731023209,25.0682459,121.4999908,OK
429,新北市三重區中正南路１３９號１、２樓,9,3731023218,25.0568179,121.493711,OK
430,新北市三重區重新路３段１０５號１樓,9,3731023227,25.0599911,121.4911073,OK
431,新北市三重區三和路２段１４５號１樓,9,3731023236,25.0694964,121.498474,OK
432,新北市三重區福德北路４５－１號１樓,9,3731023245,25.0651833,121.5022881,OK
433,新北市三重區正義北路３５１號１、２、３樓,9,3731023254,25.0716997,121.4732005,OK
434,新北市三重區正義北路３５１號１、２、３樓,9,3731023263,25.0716997,121.4732005,OK
435,新北市三重區溪尾街３２６號１、２樓,9,3731023272,25.0848452,121.4879804,OK
436,新北市三重區五華街１９６號、１９８號１樓及夾層,9,3731023281,25.0853935,121.490011,OK
437,新北市三重區五華街１９６、１９８號１樓及夾層,9,3731023290,25.0853935,121.490011,OK
438,新北市三重區忠孝路２段９３號１樓,9,3731023307,25.0618064,121.4959458,OK
439,新北市永和區信義路２５巷６號１樓,9,3731030035,25.0120891,121.5133508,OK
440,新北市永和區安樂路２８２號,9,3731030071,25.0043354,121.5144973,OK
441,新北市永和區中正路５４號,9,3731030099,24.9945733,121.5133031,OK
442,新北市永和區得和路２４７之１號２樓,9,3731030106,25.000155,121.520638,OK
443,新北市永和區竹林路１７９巷１１號,9,3731030124,25.0100228,121.5211486,OK
444,新北市永和區得和路９０號１樓,9,3731030142,24.999951,121.5170054,OK
445,新北市永和區文化路５７號,9,3731030151,25.0149745,121.5141321,OK
446,新北市永和區保福路２段１０１號,9,3731030204,25.013169,121.5103272,OK
447,新北市永和區中正路６０巷３號,9,3731030213,24.9945898,121.5136304,OK
448,新北市永和區中正路７６號１樓,9,3731030231,24.9950381,121.5138149,OK
449,新北市永和區永利路１２號,9,3731030277,25.0059105,121.517714,OK
450,新北市永和區成功路２段６２號,9,3731030295,24.9994909,121.526541,OK
451,新北市永和區豫溪街１３７－４號,9,3731030302,25.0104365,121.5200342,OK
452,新北市永和區中正路３１６號,9,3731030357,24.9994873,121.5176664,OK
453,新北市永和區文化路１１８號,9,3731030366,25.0154059,121.513255,OK
454,新北市永和區文化路３７號,9,3731030384,25.0150084,121.514589,OK
455,新北市永和區永和路１段１５５－１號,9,3731030455,25.0094925,121.5141329,OK
456,新北市永和區文化路７９號,9,3731030473,25.015078,121.513608,OK
457,新北市永和區得和路２９５號,9,3731030508,24.9997299,121.5226636,OK
458,新北市永和區中正路２７７號,9,3731030517,25.0008625,121.5175331,OK
459,新北市永和區國光路１５號,9,3731030526,25.0083461,121.5200719,OK
460,新北市永和區智光街１１６號,9,3731030535,24.9959908,121.5152297,OK
461,新北市永和區林森路１０１巷１０號１樓,9,3731030544,25.0034214,121.5237934,OK
462,新北市永和區得和路１８６號２樓,9,3731030599,24.999953,121.5200258,OK
463,新北市永和區福和路２０８號１樓,9,3731030615,25.0078653,121.519752,OK
464,新北市永和區文化路５０號,9,3731030633,25.015265,121.5147502,OK
465,新北市永和區秀朗路１段１７８號,9,3731030642,25.0031433,121.5188066,OK
466,新北市永和區中正路１２１號,9,3731030740,24.9976897,121.5156301,OK
467,新北市永和區永元路１０號,9,3731030795,25.0001233,121.5220463,OK
468,新北市永和區中和路３１１號,0,3731030811,,,OVER_QUERY_LIMIT
469,新北市永和區福和路１６３號,0,3731030820,,,OVER_QUERY_LIMIT
470,新北市永和區竹林路１５號１樓,0,3731030839,,,OVER_QUERY_LIMIT
471,新北市永和區保福路１段４４號,9,3731030866,25.009296,121.512999,OK
472,新北市永和區竹林路１９１巷４號,9,3731030884,25.0094462,121.5210178,OK
473,新北市永和區仁愛路１１３號,9,3731030893,25.013033,121.512182,OK
474,新北市永和區中正路５４５號１樓５４７號１、２樓,9,3731030900,25.0080604,121.516783,OK
475,新北市永和區民生路１９號１樓,9,3731031005,24.9990165,121.5230293,OK
476,新北市永和區得和路４１５號,9,3731031014,24.9992213,121.5259848,OK
477,新北市永和區永貞路３４２號１樓,9,3731031032,25.005804,121.511044,OK
478,新北市永和區中正路６３０號,9,3731031041,25.0080283,121.5170717,OK
479,新北市永和區林森路１０５號１樓,9,3731031096,25.0034534,121.523367,OK
480,新北市永和區中正路４９１號１樓,9,3731031158,25.0066477,121.5168937,OK
481,新北市永和區大新街１２號１樓,9,3731031201,25.0084073,121.5150636,OK
482,新北市永和區竹林路１７６號２樓,9,3731031238,25.009872,121.520258,OK
483,新北市永和區永和路１段８號１、２樓,9,3731031265,25.0045519,121.512896,OK
484,新北市永和區竹林路１２３號１樓,9,3731031336,25.011381,121.520234,OK
485,新北市永和區仁愛路１４５號,9,3731031345,25.012857,121.511356,OK
486,新北市永和區信義路１１４號１樓,9,3731031354,25.014455,121.512422,OK
487,新北市永和區福和路２７０號,9,3731031363,25.0076043,121.5179713,OK
488,新北市永和區中正路３３４號１樓２樓,9,3731031381,24.999917,121.517847,OK
489,新北市永和區安樂路２３８號,9,3731031407,25.0026815,121.5150432,OK
490,新北市永和區中正路３６０號,9,3731031461,25.0007346,121.5178212,OK
491,新北市永和區中正路２５６號,9,3731032502,24.9984573,121.516659,OK
492,新北市永和區福和路９８號,9,3731032619,25.0080974,121.5223151,OK
493,新北市永和區保安路１３２號,9,3731032637,25.015376,121.508845,OK
494,新北市永和區中正路２８號１ 、２樓,9,3731032646,24.9940065,121.5128222,OK
495,新北市永和區保生路２２巷８號１樓,9,3731032655,25.007919,121.507247,OK
496,新北市永和區竹林路１８３號,9,3731032691,25.009685,121.520761,OK
497,新北市永和區中正路１３３號,9,3731032717,24.997996,121.5159553,OK
498,新北市永和區保平路１９０號,9,3731032726,25.006614,121.510448,OK
499,新北市永和區中正路３５號１樓２樓,9,3731032744,24.9959563,121.5142129,OK
500,新北市永和區永和路２段１７４號２樓,9,3731032762,25.013231,121.5156188,OK
501,新北市永和區永貞路２０８號　,9,3731032806,25.0039529,121.514944,OK
502,新北市永和區竹林路１２５號　,9,3731032824,25.0113219,121.520252,OK
503,新北市永和區得和路２１３號１樓、２１５號１樓,9,3731032879,25.000295,121.51931,OK
504,新北市永和區中和路４０７號１樓２樓,9,3731032897,25.0004335,121.5089403,OK
505,新北市永和區中正路４８７號１樓２樓,9,3731032904,25.0065685,121.5169411,OK
506,新北市永和區永和路二段２２４號１樓,9,3731032922,25.0141198,121.5158701,OK
507,新北市永和區仁愛路２６４號,9,3731032940,25.0100743,121.5063002,OK
508,新北市永和區仁愛路６０號１．２樓,9,3731032959,25.0134949,121.513468,OK
509,新北市永和區永和路一段１５４號１樓、２樓,9,3731032968,25.0084472,121.5142552,OK
510,新北市永和區中正路５４２號２樓,9,3731032977,25.0053981,121.5174147,OK
511,新北市永和區中正路７４２號１樓,9,3731032995,25.0103879,121.515338,OK
512,新北市永和區得和路２２７號,9,3731033036,25.000355,121.519958,OK
513,新北市永和區永和路１段１０８號１、２樓,9,3731033054,25.0073969,121.51364,OK
514,新北市永和區福和路２７２號１、２樓,9,3731033072,25.0076744,121.5179148,OK
515,新北市永和區永元路９１號１樓,9,3731033081,25.001668,121.522254,OK
516,新北市永和區福和路３１６號,9,3731033107,25.0073451,121.5158889,OK
517,新北市永和區仁愛路１０號１樓,9,3731033125,25.013855,121.515016,OK
518,新北市永和區中山路１段１４號１樓,9,3731033134,25.010651,121.514131,OK
519,新北市永和區中山路１段２６１號１樓,9,3731033189,25.0074321,121.5074631,OK
520,新北市永和區永貞路１７３號１樓,9,3731033198,25.0037959,121.515306,OK
521,新北市永和區中山路１段１７０號１樓,9,3731033223,25.0092209,121.50927,OK
522,新北市永和區永元路４８號１樓,9,3731033232,25.0009263,121.5223856,OK
523,新北市永和區保平路２３６巷１５弄２號１樓,9,3731033241,25.006388,121.508347,OK
524,新北市永和區林森路８７號１樓,9,3731033250,25.0036966,121.5237806,OK
525,新北市永和區永利路１５０號１樓、１５２號１樓,9,3731033269,25.002647,121.5223451,OK
526,新北市永和區中正路３２４號１、２樓,9,3731033287,24.9995749,121.517734,OK
527,新北市永和區成功路２段８８號１樓,9,3731033296,24.9987236,121.5265403,OK
528,新北市永和區得和路３９４號１、２樓,9,3731033303,24.9992396,121.5252835,OK
529,新北市永和區民權路８４號１、２樓,9,3731033312,24.9970263,121.5198543,OK
530,新北市永和區林森路７４號１、２樓,9,3731033321,25.0041681,121.5236838,OK
531,新北市永和區竹林路７４號１、２樓,9,3731033330,25.0128453,121.5191548,OK
532,新北市永和區竹林路４３號,9,3731033349,25.0141868,121.5179831,OK
533,新北市永和區福和路１０１號１樓,9,3731033358,25.0078099,121.5218486,OK
534,新北市永和區得和路４１４號１、２樓,9,3731033367,24.9990635,121.5259761,OK
535,新北市永和區中和路５４１號１樓及２樓,6,3731033376,25.0103251,121.5145353,OK
536,新北市永和區中和路５１７號１、２樓,9,3731033385,25.0026192,121.5108865,OK
537,新北市永和區福和路１７１號１、２樓,9,3731033394,25.0075041,121.520151,OK
538,新北市永和區中和路５４１號１－２樓,9,3731033401,25.0031668,121.5114736,OK
539,新北市永和區林森路８７號１樓,9,3731033410,25.0036966,121.5237806,OK
540,新北市永和區竹林路４３號１樓,9,3731033429,25.0141868,121.5179831,OK
541,新北市永和區竹林路２１５號１、２樓,9,3731033438,25.0088485,121.5208982,OK
542,新北市永和區竹林路２１５號１、２樓,9,3731033447,25.0088485,121.5208982,OK
543,新北市永和區永利路９８號１樓及１樓夾層,9,3731033456,25.0035464,121.5209107,OK
544,新北市永和區中和路５４１號１－２樓,9,3731033465,25.0031668,121.5114736,OK
545,新北市永和區永和路２段２２號１、２樓,9,3731033474,25.0100978,121.5145903,OK
546,新北市中和區錦和路１７８號,9,3731040013,24.9955216,121.489881,OK
547,新北市中和區景新街５０８號１樓,9,3731040077,24.986854,121.513826,OK
548,新北市中和區景平路３７７號,9,3731040086,24.9933553,121.5037388,OK
549,新北市中和區保健路２３號,9,3731040111,24.9981394,121.5082637,OK
550,新北市中和區圓通路２４０－１號,9,3731040120,24.9923754,121.4946178,OK
551,新北市中和區民享街８６巷２２號,9,3731040139,25.000774,121.473497,OK
552,新北市中和區中山路２段６０號１樓,9,3731040148,25.0047969,121.503921,OK
553,新北市中和區景新街３９９巷４號、６號１樓,9,3731040157,24.9898041,121.5127026,OK
554,新北市中和區復興路２７１號,9,3731040184,24.9901806,121.5024115,OK
555,新北市中和區員山路１３０號,9,3731040193,24.996239,121.481266,OK
556,新北市中和區景新街３０８號,9,3731040200,24.9917522,121.5114325,OK
557,新北市中和區中和路２１９號１樓,9,3731040228,24.999817,121.504218,OK
558,新北市中和區仁愛街８６號１樓,9,3731040255,24.9873271,121.5114314,OK
559,新北市中和區圓通路１６號,9,3731040264,24.9980329,121.5014031,OK
560,新北市中和區連城路７６號,9,3731040273,25.001114,121.497221,OK
561,新北市中和區自立路１８１號,9,3731040326,24.9918869,121.5234911,OK
562,新北市中和區民享街５８號,9,3731040371,25.002079,121.474042,OK
563,新北市中和區興南路１段７４－１號,9,3731040380,24.9900831,121.5105153,OK
564,新北市中和區中和路８８號１、２樓,9,3731040399,25.0001769,121.501387,OK
565,新北市中和區南山路１６號２樓,9,3731040406,24.9984042,121.5018823,OK
566,新北市中和區興南路１段１５８號,9,3731040433,24.9868749,121.5082393,OK
567,新北市中和區景新街４５１號,9,3731040460,24.9885057,121.5133291,OK
568,新北市中和區景安路２０６號,9,3731040504,24.9910444,121.50394,OK
569,新北市中和區民享街９１－８號１樓,9,3731040540,25.000874,121.474684,OK
570,新北市中和區錦和路１９３號１樓,9,3731040559,24.9907779,121.490733,OK
571,新北市中和區忠孝街１２６號－１,9,3731040586,24.9862705,121.512239,OK
572,新北市中和區忠孝路９９號,9,3731040602,25.0023042,121.4624111,OK
573,新北市中和區信義街８號２樓,9,3731040639,24.9894747,121.5108508,OK
574,新北市中和區中山路２段２４４號１樓,9,3731040657,25.002665,121.497854,OK
575,新北市中和區景新街４６７巷１３號１樓,9,3731040684,24.9883411,121.5138155,OK
576,新北市中和區興南路２段４４號,9,3731040700,24.985289,121.506611,OK
577,新北市中和區民德路１３４號１樓,9,3731040719,25.000734,121.468631,OK
578,新北市中和區明仁街１４、１６號１樓,9,3731040728,24.9954726,121.5061658,OK
579,新北市中和區員山路２４４號,9,3731040737,25.0013539,121.481408,OK
580,新北市中和區復興路２５號１樓,9,3731040746,24.9898639,121.5054201,OK
581,新北市中和區南山路１６０號,9,3731040862,24.9918805,121.5043965,OK
582,新北市中和區中山路２段６６０號,9,3731040871,25.0059295,121.4805487,OK
583,新北市中和區景平路５７２號,9,3731040880,24.9954869,121.5017298,OK
584,新北市中和區中正路２１８號３樓,9,3731040899,24.9940832,121.4965335,OK
585,新北市中和區莒光路１５７號,9,3731040906,25.0009115,121.472831,OK
586,新北市中和區南山路２１３號,9,3731040933,24.9943888,121.5031453,OK
587,新北市中和區中和路２７９號１樓,9,3731040942,24.9998279,121.50581,OK
588,新北市中和區中山路３段２０４號,9,3731040951,25.0066355,121.4717002,OK
589,新北市中和區員山路１９７號,9,3731040979,24.997343,121.481116,OK
590,新北市中和區景平路６８３號,9,3731040997,25.0030074,121.4964103,OK
591,新北市中和區中山路２段２巷３弄４號,9,3731041001,25.0060659,121.5046031,OK
592,新北市中和區光華街６８號,9,3731041038,25.003384,121.505929,OK
593,新北市中和區中和路１１６號,9,3731041109,24.999594,121.50311,OK
594,新北市中和區民德路７９號２樓,9,3731041127,25.001266,121.469105,OK
595,新北市中和區錦和路１６８號,9,3731041136,24.9956452,121.4899498,OK
596,新北市中和區民享街８６巷１６號１樓,9,3731041163,25.0008189,121.473672,OK
597,新北市中和區復興路３０６號,9,3731041216,24.9904195,121.5012772,OK
598,新北市中和區大勇街４６巷２號,9,3731041225,24.993694,121.5173902,OK
599,新北市中和區興南路１段１１３號,9,3731041234,24.9881153,121.5093375,OK
600,新北市中和區秀朗路３段１７９號,9,3731041270,24.9910201,121.5243766,OK
601,新北市中和區忠孝街３－２號,9,3731041298,24.9830375,121.5094037,OK
602,新北市中和區中山路２段２２１號１樓,9,3731041350,25.002445,121.498606,OK
603,新北市中和區中山路２段２１５號１，２樓,9,3731041387,25.002402,121.498655,OK
604,新北市中和區中和路４５０號,9,3731041396,25.0037155,121.5120986,OK
605,新北市中和區連城路３５０號１樓,9,3731041467,24.995655,121.482243,OK
606,新北市中和區興南路１段６５號,9,3731041529,24.9894435,121.5102541,OK
607,新北市中和區員山路３１５號１樓,9,3731042553,25.0004259,121.481184,OK
608,新北市中和區中和路２５４號１、２樓,9,3731042562,24.9995381,121.507545,OK
609,新北市中和區中和路３３０號１樓,9,3731042571,25.0011145,121.509962,OK
610,新北市中和區員山路１３８號,9,3731042580,24.9964349,121.481414,OK
611,新北市中和區員山路１１２號,9,3731042599,24.995619,121.481217,OK
612,新北市中和區華新街２５號,9,3731042606,24.9850651,121.5076062,OK
613,新北市中和區安邦街９１號１樓,9,3731042615,24.9959743,121.497252,OK
614,新北市中和區中安街９８號１樓,9,3731042624,25.0012876,121.5117565,OK
615,新北市中和區中山路３段１５２號,9,3731042651,25.0063575,121.4734934,OK
616,新北市中和區興南路２段１５９巷１２號１樓,9,3731042660,24.983077,121.504963,OK
617,新北市中和區安邦街１３０號１樓、１３２號２樓,9,3731042679,24.995643,121.497326,OK
618,新北市中和區景平路７４０號,9,3731042688,25.004193,121.496701,OK
619,新北市中和區南華路４５號,9,3731042697,24.9968832,121.5038741,OK
620,新北市中和區中山路２段２０３號１－２樓,9,3731042704,25.002492,121.499879,OK
621,新北市中和區景平路５２４號,9,3731042713,24.9942418,121.5032269,OK
622,新北市中和區南山路１０號,9,3731042731,24.998582,121.5018815,OK
623,新北市中和區中正路７３０號１樓,9,3731042768,24.9976669,121.4855979,OK
624,新北市中和區新生街２０５號１樓,9,3731042795,24.9999165,121.4838419,OK
625,新北市中和區中和路４４０號１、２樓,9,3731042811,25.0035509,121.511942,OK
626,新北市中和區景平路１１６號１樓,9,3731042820,24.9917433,121.5194587,OK
627,新北市中和區連城路１９號１樓,9,3731042839,25.0020719,121.498871,OK
628,新北市中和區員山路４８５號１．２樓,9,3731042848,25.0054982,121.4799594,OK
629,新北市中和區泰和街１２號１樓,9,3731042857,25.001091,121.499814,OK
630,新北市中和區宜安路１３８號１樓,9,3731042866,24.9984059,121.509795,OK
631,新北市中和區宜安路６號１樓,9,3731042875,24.9955514,121.513483,OK
632,新北市中和區南山路１７４之１號１樓,9,3731042884,24.9912274,121.5049388,OK
633,新北市中和區中山路２段１６８號,9,3731042900,25.002949,121.501344,OK
634,新北市中和區員山路２９７、２９９號１樓,9,3731042928,25.0001559,121.481148,OK
635,新北市中和區景平路２４０巷２弄１號１樓,9,3731042937,24.99314,121.516061,OK
636,新北市中和區中正路２４號１樓,9,3731042946,24.9937701,121.5026382,OK
637,新北市中和區景平路４２９－１號１，２樓,9,3731042955,24.995331,121.5014191,OK
638,新北市中和區中安街６號,9,3731042964,25.003422,121.5134953,OK
639,新北市中和區大勇街２５巷３８弄７號１樓,9,3731042973,24.9939254,121.5159814,OK
640,新北市中和區安平路７８號,9,3731042991,24.9965717,121.5111242,OK
641,新北市中和區景安路７８號１樓,9,3731043023,24.9964183,121.5057729,OK
642,新北市中和區中和路４１０號１、２樓,9,3731043032,25.0029973,121.5114596,OK
643,新北市中和區建一路１號１樓,9,3731043041,25.0041301,121.4882288,OK
644,新北市中和區景平路１６２號１、２樓,9,3731043069,24.992237,121.5173962,OK
645,新北市中和區興南路２段２號１樓,9,3731043078,24.9863339,121.507885,OK
646,新北市中和區景平路３６３號１、２樓,9,3731043087,24.9933315,121.5043964,OK
647,新北市中和區水源路８１巷３號５號１樓,9,3731043103,25.0046839,121.5068162,OK
648,新北市中和區中山路２段３巷２號１樓,0,3731043112,,,ZERO_RESULTS
649,新北市中和區景新街３０２號１樓,9,3731043144,24.991915,121.5113228,OK
650,新北市中和區莒光路４５號１、２樓,9,3731043158,25.0049169,121.472135,OK
651,新北市中和區民德路６１號１樓,9,3731043176,25.001531,121.469036,OK
652,新北市中和區莒光路１５２-1號１樓,9,3731043185,25.0007057,121.4724879,OK
653,新北市中和區景平路５５９號１樓,9,3731043194,24.999718,121.498211,OK
654,新北市中和區秀朗路３段１０５號１、２、３樓,9,3731043201,24.9946936,121.5265801,OK
655,新北市中和區中山路３段２１號１樓,9,3731043210,25.0058961,121.4793865,OK
656,新北市中和區景新街３４５-６號１、２樓,9,3731043229,24.9911385,121.5119689,OK
657,新北市中和區中和路３１４號１、２樓,9,3731043238,25.0004219,121.509252,OK
658,新北市中和區連城路８９巷７-５號〈第一層、第二層〉,9,3731043256,24.9992177,121.4974154,OK
659,新北市中和區自強路５０號１樓,9,3731043265,24.9949029,121.519912,OK
660,新北市中和區連城路２８６號１樓,9,3731043274,24.9964179,121.484425,OK
661,新北市中和區中興街１３４號１樓,9,3731043283,24.9921584,121.4997924,OK
662,新北市中和區宜安路１２３號１、２樓,9,3731043292,24.9980907,121.5098803,OK
663,新北市中和區宜安路９８號１樓、２樓,9,3731043318,24.9976792,121.51052,OK
664,新北市中和區立人街２３號１、２樓,9,3731043327,24.994005,121.5212384,OK
665,新北市中和區成功路９號１樓,9,3731043336,24.9939709,121.526496,OK
666,新北市中和區捷運路８９號１樓、９１號１樓、９３號１樓,9,3731043345,24.9901057,121.5082105,OK
667,新北市中和區建康路１５６及１５８號２樓,9,3731043354,25.0001102,121.4902818,OK
668,新北市中和區景安路６９號１樓２樓,9,3731043363,24.997686,121.506934,OK
669,新北市中和區安平路２１２號１樓、２樓,9,3731043372,25.0000302,121.5138704,OK
670,新北市中和區連城路４７１號１、２、３樓,9,3731043381,24.995731,121.48337,OK
671,新北市中和區連城路４７１號１、２、３樓,9,3731043390,24.995731,121.48337,OK
672,新北市中和區連城路４７１號１、２、３樓,9,3731043407,24.995731,121.48337,OK
673,新北市中和區捷運路８９號１樓,9,3731043416,24.9901057,121.5082105,OK
674,新北市中和區員山路２９９號１樓，２樓,9,3731043425,25.000067,121.481193,OK
675,新北市中和區連城路３６１號１樓及３６３號１樓,9,3731043434,24.9960492,121.4876075,OK
676,新北市中和區景安路１３８號１樓、２樓、３樓,9,3731043443,24.9943173,121.5051965,OK
677,新北市中和區景安路１３８號１樓、２樓、３樓,9,3731043452,24.9943173,121.5051965,OK
678,新北市中和區連城路３６３號１樓,9,3731043461,24.9960492,121.4875335,OK
679,新北市中和區建康路１５６號２樓及１５８號２樓,9,3731043470,25.0001102,121.4902818,OK
680,新北市新店區三民路７５巷３弄１號１樓,9,3731050028,24.9710303,121.5358578,OK
681,新北市新店區中正路３１２巷１號,9,3731050064,24.9750241,121.5373525,OK
682,新北市新店區三民路３１－６號,9,3731050073,24.970281,121.537684,OK
683,新北市新店區安康路２段８８號,9,3731050108,24.9632504,121.5138405,OK
684,新北市新店區安康路２段２１２號,9,3731050117,24.9594218,121.5099699,OK
685,新北市新店區三民路１３６號,9,3731050135,24.9750464,121.5350947,OK
686,新北市新店區建國路６４號,9,3731050180,24.9758681,121.5406784,OK
687,新北市新店區三民路８６號２樓,9,3731050206,24.972756,121.5344295,OK
688,新北市新店區北新路３段１２６號１、２樓,9,3731050215,24.981776,121.54177,OK
689,新北市新店區中正路１５５號,9,3731050233,24.9717729,121.541231,OK
690,新北市新店區光明街３１２號,9,3731050242,24.9651069,121.540775,OK
691,新北市新店區中華路１０５號,9,3731050251,24.9691804,121.5388606,OK
692,新北市新店區北新路１段２７１巷２號,9,3731050297,24.9670089,121.540665,OK
693,新北市新店區安康路３段１９號,9,3731050313,24.9533259,121.493619,OK
694,新北市新店區三民路３號２樓,9,3731050322,24.9725345,121.539901,OK
695,新北市新店區中正路３２５號,9,3731050340,24.9749349,121.53607,OK
696,新北市新店區北新路３段１５８號５樓,9,3731050359,24.9827813,121.541558,OK
697,新北市新店區富貴街９巷１４號,9,3731050386,24.9489206,121.4944041,OK
698,新北市新店區華中街６４號,9,3731050395,24.9714043,121.5414056,OK
699,新北市新店區建國路１５５號,9,3731050402,24.9788885,121.5386947,OK
700,新北市新店區三民路１５５號,9,3731050411,24.973521,121.533592,OK
701,新北市新店區三民路９２號２樓,9,3731050439,24.9728812,121.5343753,OK
702,新北市新店區中正路４９號,9,3731050457,24.9698036,121.5446142,OK
703,新北市新店區民權路８１號,9,3731050475,24.9829613,121.5379916,OK
704,新北市新店區光明街２９２號２樓,9,3731050493,24.964715,121.540686,OK
705,新北市新店區中正路３１８號１樓,9,3731050500,24.9748557,121.5371375,OK
706,新北市新店區中興路３段１９０號１樓,9,3731050582,24.981711,121.544092,OK
707,新北市新店區北新路１段２４５號,9,3731050617,24.966107,121.540622,OK
708,新北市新店區民族路６０號,9,3731050626,24.9785785,121.5397027,OK
709,新北市新店區建國路１２號２樓,9,3731050653,24.9736521,121.5401224,OK
710,新北市新店區安成街３０號,9,3731050662,24.9610084,121.5100451,OK
711,新北市新店區建國路１２０.１２２號１樓,9,3731050680,24.9787816,121.5392001,OK
712,新北市新店區北新路２段１９５號,9,3731050699,24.978082,121.542452,OK
713,新北市新店區安康路２段１９６號２樓,9,3731050706,24.9590371,121.5092059,OK
714,新北市新店區中興路３段１３６號,9,3731050715,24.9800374,121.5446142,OK
715,新北市新店區民權路７３號３樓,9,3731050724,24.9829601,121.5381866,OK
716,新北市新店區民族路５０號,9,3731050779,24.978778,121.539988,OK
717,新北市新店區建國路８１號,9,3731050797,24.9762339,121.5403391,OK
718,新北市新店區中正路５９號２樓,9,3731050804,24.9700346,121.5441344,OK
719,新北市新店區光明街１６１號,9,3731050813,24.9625,121.539576,OK
720,新北市新店區北宜路２段８２－１３號,9,3731050831,24.953321,121.554503,OK
721,新北市新店區安民街１９７號１樓,9,3731050840,24.9712932,121.5168995,OK
722,新北市新店區北新路３段１０８號,9,3731050868,24.98135,121.54195,OK
723,新北市新店區三民路１１５號,9,3731050886,24.9720841,121.5349351,OK
724,新北市新店區寶橋路６３號,9,3731050895,24.975166,121.545209,OK
725,新北市新店區安和路３段１５３號,9,3731050911,24.985557,121.516538,OK
726,新北市新店區寶元路２段１５號,9,3731050939,24.982363,121.5462007,OK
727,新北市新店區中正路６３９號,9,3731050948,24.9895399,121.533685,OK
728,新北市新店區三民路３０號１樓,9,3731051945,24.9712831,121.5367376,OK
729,新北市新店區中正路２５５號２樓,9,3731051990,24.9735011,121.5387806,OK
730,新北市新店區三民路９５號,9,3731052004,24.971711,121.535358,OK
731,新北市新店區中興路１段１９９號,9,3731052013,24.9655039,121.543123,OK
732,新北市新店區二十張路１１巷１－１號３樓,9,3731052068,24.9825351,121.5398058,OK
733,新北市新店區北新路３段１２號１樓,9,3731052095,24.9792199,121.5424823,OK
734,新北市新店區北宜路１段５６號１樓,9,3731052102,24.956179,121.538223,OK
735,新北市新店區北新路３段１５８號２樓,9,3731052139,24.9827813,121.541558,OK
736,新北市新店區寶安街６４號１樓,9,3731052148,24.9842868,121.5418191,OK
737,新北市新店區中央路２１６－１號２樓,9,3731052157,24.973204,121.5297,OK
738,新北市新店區安民街６３號１樓,9,3731052166,24.9665553,121.5163846,OK
739,新北市新店區中正路４９５－１號,9,3731052237,24.983178,121.533492,OK
740,新北市新店區三民路１３１號１樓,9,3731052264,24.972356,121.534407,OK
741,新北市新店區中興路１段２６６－３號１樓,9,3731052273,24.967224,121.545393,OK
742,新北市新店區新和街３４號１樓,9,3731052282,24.9847799,121.5192757,OK
743,新北市新店區安民街１５７號１樓、２樓,9,3731052291,24.9697842,121.5165513,OK
744,新北市新店區中正路６８４號１樓,9,3731052308,24.9899095,121.5341198,OK
745,新北市新店區中正路２２６、２２８號２樓,9,3731052344,24.9728833,121.5401548,OK
746,新北市新店區民權路４６號２樓,9,3731052362,24.9830694,121.5401637,OK
747,新北市新店區北新路２段１７７－１號１樓,9,3731052371,24.9767779,121.5427151,OK
748,新北市新店區北新路３段９２號１、２樓,9,3731052399,24.9808389,121.542014,OK
749,新北市新店區寶橋路５２號２樓,9,3731052406,24.974819,121.5453752,OK
750,新北市新店區北新路２段５３號１樓,9,3731052415,24.9730817,121.5427952,OK
751,新北市新店區建國路２０６號１樓,9,3731052424,24.9807358,121.537848,OK
752,新北市新店區北新路３段６５巷６號１樓,9,3731052442,24.981108,121.5412297,OK
753,新北市新店區安康路２段２０８號１樓,9,3731052451,24.9589012,121.5089291,OK
754,新北市新店區中央路２１０－１號１樓,9,3731052479,24.9648296,121.429711,OK
755,新北市新店區民族路１７１號１樓,9,3731052497,24.9764967,121.5375468,OK
756,新北市新店區中正路２１１號２樓,9,3731052504,24.9727672,121.5397847,OK
757,新北市新店區北新路３段８８號１、２樓,9,3731052568,24.980689,121.542043,OK
758,新北市新店區三民路１７５號１樓,9,3731052577,24.9751399,121.5348197,OK
759,新北市新店區二十張路２５巷１號１樓,9,3731052586,24.982198,121.5388329,OK
760,新北市新店區安康路２段１１７號１樓２樓,9,3731052602,24.9615958,121.5126202,OK
761,新北市新店區北新路三段１１７號１樓２樓,9,3731052639,24.9823949,121.541121,OK
762,新北市新店區北新路一段２２１號１樓２樓,9,3731052648,24.9653363,121.5405126,OK
763,新北市新店區北新路１段２９１號２樓,9,3731052657,24.967187,121.541064,OK
764,新北市新店區三民路１４號２樓,9,3731052666,24.9702019,121.537064,OK
765,新北市新店區安忠路８號１樓,9,3731052675,24.9631349,121.5146727,OK
766,新北市新店區明德路６５巷２號１樓,9,3731052684,24.9768803,121.5413737,OK
767,新北市新店區北新路３段２３號１樓、２樓,9,3731052693,24.979946,121.541888,OK
768,新北市新店區中華路３３號１樓、２樓,9,3731052700,24.967395,121.540215,OK
769,新北市新店區如意街９４號１樓,9,3731052737,24.9467915,121.4961103,OK
770,新北市新莊區幸福路７９號,9,3731060015,25.0493402,121.456815,OK
771,新北市新莊區中正路２９３號１、２樓,9,3731060051,25.0263275,121.4176487,OK
772,新北市新莊區八德街８３號,9,3731060097,25.022001,121.424838,OK
773,新北市新莊區富國路６１號,9,3731060122,25.0263049,121.419591,OK
774,新北市新莊區中正路２０８號,9,3731060131,25.0357289,121.449196,OK
775,新北市新莊區建國一路８號１、２、３樓及６號２樓,0,3731060177,,,ZERO_RESULTS
776,新北市新莊區新泰路２９１號,9,3731060186,25.0407328,121.4454333,OK
777,新北市新莊區民安路２７４號,9,3731060195,25.021289,121.427718,OK
778,新北市新莊區中港三街３號,9,3731060202,25.0463311,121.4497695,OK
779,新北市新莊區自立街１１５號,9,3731060220,25.0455706,121.455663,OK
780,新北市新莊區公園路７７號,9,3731060257,25.0404253,121.4541874,OK
781,新北市新莊區幸福路２８號,9,3731060284,25.0495549,121.4588076,OK
782,新北市新莊區中信街６號,9,3731060319,25.051423,121.448936,OK
783,新北市新莊區中原路１０４號,9,3731060337,25.0543742,121.4507781,OK
784,新北市新莊區中平路８２巷２６號,9,3731060355,25.044684,121.4459101,OK
785,新北市新莊區幸福路６０４號１樓,9,3731060373,25.0493215,121.4519656,OK
786,新北市新莊區民安西路７８巷１號１樓,9,3731060435,25.01981,121.426967,OK
787,新北市新莊區新泰路１９８號,9,3731060444,25.03839,121.447249,OK
788,新北市新莊區西盛街３１５號１樓,9,3731060499,25.014938,121.428328,OK
789,新北市新莊區中平路７９號,9,3731060533,25.0446304,121.4447903,OK
790,新北市新莊區中正路３１１號,9,3731060597,25.034932,121.448149,OK
791,新北市新莊區中華路１段３２號,9,3731060604,25.037656,121.452174,OK
792,新北市新莊區昌隆街２１號,9,3731060677,25.0509849,121.4544023,OK
793,新北市新莊區民安西路１４８號,9,3731060686,25.016655,121.426117,OK
794,新北市新莊區自立街７２號,9,3731060702,25.0452369,121.454271,OK
795,新北市新莊區富國路６５巷２號,9,3731060711,25.0262565,121.4198426,OK
796,新北市新莊區復興路２段１２２號,9,3731060766,25.044232,121.4566292,OK
797,新北市新莊區富國路２３號,9,3731060828,25.0265299,121.418705,OK
798,新北市新莊區昌平街１０號１樓.１２號１樓,9,3731060855,25.053821,121.454028,OK
799,新北市新莊區中正路２５９號,9,3731060873,25.035254,121.44988,OK
800,新北市新莊區中平路４４號,9,3731060882,25.0437824,121.4449423,OK
801,新北市新莊區幸福路５１５號１樓,9,3731060891,25.049196,121.455653,OK
802,新北市新莊區幸福路７６６號１樓,9,3731060908,25.0492305,121.4471803,OK
803,新北市新莊區新泰路２６９號１、２樓,9,3731060917,25.0402279,121.4457547,OK
804,新北市新莊區中和街１９２號,9,3731060926,25.050002,121.447556,OK
805,新北市新莊區昌平里昌平街７１巷２號、４號１－２樓及７３號２樓,0,3731060999,,,ZERO_RESULTS
806,新北市新莊區四維路１９９號１樓,9,3731061030,25.0206519,121.422125,OK
807,新北市新莊區幸福路７４１號１樓,9,3731061049,25.048892,121.448773,OK
808,新北市新莊區中正路３４９號,9,3731061067,25.0348128,121.4470192,OK
809,新北市新莊區幸福路５６０號,9,3731061094,25.0494638,121.454604,OK
810,新北市新莊區民安路１６０號,9,3731061110,25.024548,121.424726,OK
811,新北市新莊區中和街１８７號,9,3731061129,25.050806,121.447812,OK
812,新北市新莊區新泰路１６２號,9,3731061147,25.037665,121.447678,OK
813,新北市新莊區復興路２段４５、４７號,9,3731061174,25.0442224,121.4546369,OK
814,新北市新莊區中港一街３４號（１樓）,9,3731061183,25.0456716,121.4509823,OK
815,新北市新莊區復興路１段１８５號１至２樓、１８７號１至２樓,0,3731061254,,,ZERO_RESULTS
816,新北市新莊區民安西路３９號１樓,9,3731061325,25.020844,121.427647,OK
817,新北市新莊區五工三路５８號１樓,9,3731061334,25.06444,121.459713,OK
818,新北市新莊區建福里建福路５３號１、２樓,9,3731061398,25.02752,121.426824,OK
819,新北市新莊區幸福路５６３號１樓,9,3731062420,25.0491726,121.4543442,OK
820,新北市新莊區中正路３９９號１樓,9,3731062448,25.034428,121.445321,OK
821,新北市新莊區幸福路６００號１樓,9,3731062475,25.0494272,121.4532376,OK
822,新北市新莊區富國路４３號,9,3731062500,25.0264369,121.4191701,OK
823,新北市新莊區民安路１１５號1樓,9,3731062519,25.0247503,121.4247735,OK
824,新北市新莊區四維路１９號２樓、２１號７樓,9,3731062528,25.024205,121.423618,OK
825,新北市新莊區建安街８４號,9,3731062537,25.0241499,121.4263597,OK
826,新北市新莊區幸福路７２１號１、２樓,9,3731062546,25.0490736,121.4494997,OK
827,新北市新莊區昌平街３、５號,9,3731062582,25.0515046,121.4547356,OK
828,新北市新莊區幸福路７９８號１、２樓,9,3731062608,25.0491059,121.4463151,OK
829,新北市新莊區立德里公園路５０號,9,3731062617,25.0393594,121.4492635,OK
830,新北市新莊區幸福路８１２號１樓,9,3731062626,25.0490933,121.4459403,OK
831,新北市新莊區五權一路５４號２樓,9,3731062635,25.066005,121.458142,OK
832,新北市新莊區富國路１６２號１樓,9,3731062644,25.024575,121.423392,OK
833,新北市新莊區幸福路７４７號１樓及２樓,9,3731062699,25.0490649,121.448515,OK
834,新北市新莊區中正路３１９號１、２樓,9,3731062706,25.0263348,121.417652,OK
835,新北市新莊區榮和里中華路１段８４號１－２樓,0,3731062715,,,ZERO_RESULTS
836,新北市新莊區中正路４３５號１樓,9,3731062724,25.034084,121.44348,OK
837,新北市新莊區中平路２７８號１、２樓,9,3731062742,25.0506565,121.4448399,OK
838,新北市新莊區中正路８７９－２號１樓,9,3731062760,25.026377,121.418101,OK
839,新北市新莊區海山里瓊泰路２１３號１樓,9,3731062788,25.032371,121.442964,OK
840,新北市新莊區昌平里中華路２段２６２號１樓,9,3731062822,25.0533215,121.4525569,OK
841,新北市新莊區建安里民安路１９９號１樓,9,3731062831,25.0223753,121.4262442,OK
842,新北市新莊區民全里民安西路１９號１樓,9,3731062840,25.021445,121.4270469,OK
843,新北市新莊區福營里中正路５８３號１－２樓,0,3731062868,,,ZERO_RESULTS
844,新北市新莊區中華路２段１１９號１樓,9,3731062886,25.0491053,121.4525403,OK
845,新北市新莊區立功里中和街８９號１樓,9,3731062911,25.047957,121.447322,OK
846,新北市新莊區中港路２９３號１樓至２樓,9,3731062957,25.044262,121.4527873,OK
847,新北市新莊區中平路３０３號１樓,9,3731062966,25.0515051,121.4447199,OK
848,新北市新莊區龍安路３１９號１樓,9,3731062975,25.0195647,121.4217242,OK
849,新北市新莊區公園路３３號１樓,9,3731062984,25.0401986,121.4528938,OK
850,新北市新莊區新泰路１４１號１樓,9,3731062993,25.0365274,121.4478303,OK
851,新北市新莊區後港一路１１６號１樓,9,3731063025,25.0270775,121.4286783,OK
852,新北市新莊區中正路５１０號１樓,9,3731063043,25.0380748,121.4317884,OK
853,新北市新莊區四維路２０５之１號１樓,9,3731063052,25.0203988,121.4219749,OK
854,新北市新莊區建安街９０號１樓,9,3731063089,25.02398,121.4260882,OK
855,新北市新莊區新泰路２７２號１至３樓,9,3731063098,25.040259,121.4460035,OK
856,新北市新莊區建安街９８號１樓,9,3731063105,25.0238136,121.425788,OK
857,新北市新莊區中華路２段１７號１樓,9,3731063123,25.0456715,121.4535475,OK
858,新北市新莊區福壽街９６號１樓,9,3731063132,25.0500796,121.4583536,OK
859,新北市新莊區新泰路６４號１樓,9,3731063141,25.0347915,121.4492201,OK
860,新北市新莊區中平路６９號１樓及夾層,9,3731063150,25.0448529,121.4446303,OK
861,新北市新莊區民安西路６６號１樓至２樓,0,3731063169,,,ZERO_RESULTS
862,新北市新莊區建興街７號１樓及２樓,9,3731063178,25.036023,121.449887,OK
863,新北市新莊區幸福路７３２號１樓至２樓及地下一層,9,3731063196,25.0492073,121.4489463,OK
864,新北市新莊區中華路１段７１號１樓及２樓、６７、６９號２樓,0,3731063203,,,ZERO_RESULTS
865,新北市新莊區建安街７３號１樓,9,3731063212,25.0248909,121.4276737,OK
866,新北市新莊區中平路８２巷２號１樓及夾層,9,3731063221,25.044702,121.444886,OK
867,新北市新莊區中安街２９－１號１樓及２樓,9,3731063230,25.0461609,121.452655,OK
868,新北市新莊區民安西路２５７號１樓,9,3731063249,25.0133372,121.4262306,OK
869,新北市新莊區建安街４７號１樓,9,3731063258,25.0248607,121.4275558,OK
870,新北市新莊區幸福路５８５號１樓,9,3731063276,25.0491738,121.4537018,OK
871,新北市新莊區中正路１６０號１樓及１６２號地下一層,9,3731063285,25.0361759,121.45145,OK
872,新北市新莊區中正路７３０之１６號．１７號１樓至３樓,0,3731063294,,,ZERO_RESULTS
873,新北市新莊區雙鳳路２３號１樓,9,3731063301,25.0267849,121.416634,OK
874,新北市新莊區幸福路７４１號１樓,9,3731063310,25.048892,121.448773,OK
875,新北市新莊區新泰路２００號１樓及２０２號１、２樓,9,3731063329,25.038431,121.447226,OK
876,新北市新莊區中港路２６８號１、２樓,9,3731063338,25.0440321,121.4533532,OK
877,新北市新莊區新泰路１４１號１樓,9,3731063347,25.0365274,121.4478303,OK
878,新北市新莊區中原東路２０８號１、２樓,9,3731063356,25.054348,121.4602616,OK
879,新北市樹林區四德街２９號,9,3731070039,24.9921221,121.4258382,OK
880,新北市樹林區保安街１段６０號,9,3731070075,24.994403,121.425408,OK
881,新北市樹林區中山路１段９３號,9,3731070084,24.9912077,121.4234418,OK
882,新北市樹林區中山路１段８４號,9,3731070100,24.9915499,121.423236,OK
883,新北市樹林區中山路１段１２５號－１,9,3731070119,24.989987,121.422662,OK
884,新北市樹林區育英街５０號,9,3731070128,24.989314,121.42128,OK
885,新北市樹林區太平街５６巷２號,9,3731070182,24.9771027,121.4184485,OK
886,新北市樹林區樹德街９２號,9,3731070191,24.992532,121.420011,OK
887,新北市樹林區日新街３７號１樓,9,3731070208,24.99221,121.422947,OK
888,新北市樹林區太元街３０號,9,3731070244,24.9803172,121.4179005,OK
889,新北市樹林區三福街３１號,9,3731070271,25.0166623,121.4085109,OK
890,新北市樹林區千歲街５３－２號,9,3731070299,24.996647,121.425536,OK
891,新北市樹林區樹新路３９號１樓,9,3731070315,24.994604,121.426922,OK
892,新北市樹林區中華路２３９號１樓,9,3731070379,24.9806854,121.418557,OK
893,新北市樹林區保順街７５號,9,3731070388,24.9945254,121.4291826,OK
894,新北市樹林區中正路８５７號,9,3731070397,25.0176882,121.4087775,OK
895,新北市樹林區文化街１２號,9,3731070431,24.9889383,121.4172689,OK
896,新北市樹林區復興路２２１號１樓,9,3731070468,24.991034,121.420143,OK
897,新北市樹林區保安街２段１４４號,9,3731070486,25.0042534,121.413494,OK
898,新北市樹林區中華路３３５號１樓,9,3731071492,24.9801009,121.415946,OK
899,新北市樹林區日新街３２號１樓,9,3731071518,24.9923119,121.422562,OK
900,新北市樹林區保安二街９５號,9,3731071554,24.9951473,121.4239557,OK
901,新北市樹林區中山路１段２１８號,9,3731071563,24.987963,121.421225,OK
902,新北市樹林區中華路２４７號,9,3731071581,24.9805853,121.4183422,OK
903,新北市樹林區中山路１段１１６號１樓,9,3731071590,24.9906624,121.4228132,OK
904,新北市樹林區中華路２１７號１樓,9,3731071607,24.9810837,121.4192869,OK
905,新北市樹林區鎮前街３號１樓附１附３、３之１號２樓附２附４附５,9,3731071616,24.9932979,121.426446,OK
906,新北市樹林區中華路１４８號１－２樓,9,3731071625,24.9802789,121.416309,OK
907,新北市樹林區中華路１４９號１樓,9,3731071634,24.981932,121.421104,OK
908,新北市樹林區大雅路３０２號１、２樓,9,3731071643,24.9487136,121.379419,OK
909,新北市樹林區大成路８３號１樓,9,3731071652,24.945842,121.382341,OK
910,新北市樹林區學勤路３２０號１樓,9,3731071661,24.9474056,121.3793209,OK
911,新北市樹林區保安２街２１、２３號１、２樓,9,3731071670,24.9993879,121.416247,OK
912,新北市樹林區鎮前街６４號１－２樓,9,3731071698,24.992321,121.425451,OK
913,新北市樹林區俊英街１１３之３號１、２樓,9,3731071705,25.0100604,121.4245011,OK
914,新北市樹林區大安路１１３號,9,3731071714,24.9977979,121.42254,OK
915,新北市樹林區鎮前街１３號１、２樓,9,3731071723,24.9927562,121.4259427,OK
916,新北市樹林區東華街９１號１樓,9,3731071732,24.9808392,121.4155911,OK
917,新北市鶯歌區中正一路８１－１號,9,3731080017,24.954583,121.352268,OK
918,新北市鶯歌區中正一路１１４號,9,3731080026,24.9550569,121.352342,OK
919,新北市鶯歌區鶯桃路２段１５號,9,3731080053,24.972099,121.325823,OK
920,新北市鶯歌區建國路１６４號,9,3731080071,24.9535809,121.350344,OK
921,新北市鶯歌區南昌街９巷４號１樓,9,3731080106,24.9537755,121.3494,OK
922,新北市鶯歌區尖山路９３號１樓,9,3731080151,24.9492111,121.3481196,OK
923,新北市鶯歌區國慶街１７５號,9,3731080160,24.952799,121.351414,OK
924,新北市鶯歌區鶯桃路２段３４號,9,3731080188,24.9725276,121.3256676,OK
925,新北市鶯歌區鶯桃路５４５號,9,3731080197,24.9678826,121.3303576,OK
926,新北市鶯歌區中正一路９５號,9,3731081247,24.954924,121.351911,OK
927,新北市鶯歌區中正一路５４號,9,3731081256,24.953881,121.352498,OK
928,新北市鶯歌區建國路１１５號１、２樓,9,3731081283,24.953774,121.352585,OK
929,新北市鶯歌區建國路１４２－１號，１４６號１樓,9,3731081318,24.953808,121.350894,OK
930,新北市鶯歌區仁愛路１３號１樓、１５號１－２樓,9,3731081327,24.993686,121.29454,OK
931,新北市鶯歌區仁愛路１３號２樓,9,3731081336,24.9567867,121.3534698,OK
932,新北市三峽區仁愛街１０號,9,3731090022,24.933294,121.368201,OK
933,新北市三峽區中正路１段５５號,9,3731090040,24.930301,121.375587,OK
934,新北市三峽區和平街８３號,9,3731090059,24.9375359,121.370185,OK
935,新北市三峽區文化路２６４號３樓,9,3731090077,24.9359376,121.3668263,OK
936,新北市三峽區溪北街２８號,9,3731090086,24.9360087,121.3967561,OK
937,新北市三峽區文化路４２號,9,3731090095,24.9362249,121.373072,OK
938,新北市三峽區民生街７７號１樓,9,3731090102,24.935877,121.375063,OK
939,新北市三峽區民生街３３號,9,3731090120,24.936168,121.37579,OK
940,新北市三峽區中園街６２－４號,9,3731090139,24.925919,121.367765,OK
941,新北市三峽區文化路１８號,9,3731090148,24.935852,121.373293,OK
942,新北市三峽區文化路７９號　　,9,3731090166,24.93613,121.371699,OK
943,新北市三峽區中山路２３３號,0,3731091190,,,OVER_QUERY_LIMIT
944,新北市三峽區大同路６４號　,0,3731091207,,,OVER_QUERY_LIMIT
945,新北市三峽區文化路２１２號之５－６－１樓,0,3731091225,,,OVER_QUERY_LIMIT
946,新北市三峽區大德路１８３號１、２樓,9,3731091234,24.9467357,121.3749211,OK
947,新北市三峽區大德路２１８號,9,3731091243,24.9468294,121.3748666,OK
948,新北市三峽區大義路３１號１、２樓,9,3731091252,24.9442417,121.3789092,OK
949,新北市三峽區學成路２８９號１、２樓,9,3731091270,24.9457615,121.3804177,OK
950,新北市三峽區學成路２５６號１、２樓,9,3731091289,24.9422404,121.375359,OK
951,新北市淡水區中山路３號,9,3731100023,25.1694458,121.4442979,OK
952,新北市淡水區學府路１０２巷８號１樓,9,3731100041,25.1718634,121.4507481,OK
953,新北市淡水區中正路１０４號１樓,9,3731100087,25.1781597,121.4241054,OK
954,新北市淡水區清水街２４８號,9,3731100096,25.171033,121.4405102,OK
955,新北市淡水區大忠街３７號１樓,9,3731100103,25.1763625,121.4442728,OK
956,新北市淡水區公明街４９號,9,3731100112,25.169064,121.443086,OK
957,新北市淡水區民族路３４號,9,3731100149,25.1363176,121.4612995,OK
958,新北市淡水區民權路１２７號２樓,9,3731100167,25.1368984,121.460118,OK
959,新北市淡水區文化路５９巷６號１樓,9,3731100176,25.1726415,121.4397799,OK
960,新北市淡水區中山北路１段９７號,9,3731100210,25.1764435,121.4424484,OK
961,新北市淡水區學府路４３號１樓及地下１樓,9,3731100229,25.1691396,121.4479614,OK
962,新北市淡水區鄧公路３０巷１１號,9,3731100238,25.1699736,121.453119,OK
963,新北市淡水區學府路３７號,9,3731100247,25.1689321,121.4478685,OK
964,新北市淡水區淡金路３段２９４號,9,3731100256,25.20757,121.449069,OK
965,新北市淡水區中山路１０６－１號,9,3731100336,25.170859,121.442337,OK
966,新北市淡水區北新路５５號,9,3731100345,25.1783314,121.4458674,OK
967,新北市淡水區中山路１２０號,9,3731100381,25.170975,121.441937,OK
968,新北市淡水區自強路７８號１樓,9,3731100390,25.1279198,121.463032,OK
969,新北市淡水區新民街８６號,9,3731100416,25.1766771,121.4384191,OK
970,新北市淡水區中山北路１段５５號,9,3731100443,25.1756075,121.4418142,OK
971,新北市淡水區清水街６號１、２樓,9,3731101477,25.1703759,121.445168,OK
972,新北市淡水區民族路２７號２樓,9,3731101495,25.1368059,121.4606538,OK
973,新北市淡水區民族路５號２樓,9,3731101502,25.1371024,121.4603899,OK
974,新北市淡水區北新路１２３號１樓,9,3731101511,25.1804019,121.4523352,OK
975,新北市淡水區新春街１９８號,0,3731101520,,,OVER_QUERY_LIMIT
976,新北市淡水區英專路５３號,9,3731101539,25.1707671,121.4456374,OK
977,新北市淡水區中正東路２段３７號２樓,9,3731101575,25.156346,121.459421,OK
978,新北市淡水區水源街１段８０號,9,3731101584,25.1722152,121.4456411,OK
979,新北市淡水區民生路４７－６號,9,3731101593,25.1381424,121.4623255,OK
980,新北市淡水區中山路１０１號１、２樓,9,3731101619,25.1706519,121.441934,OK
981,新北市淡水區清水街３４巷１號３號１樓２樓,9,3731101628,25.1703419,121.4451672,OK
982,新北市淡水區民權路１７９－２號２樓,9,3731101646,25.1349218,121.4596856,OK
983,新北市淡水區中正路２９４－１號１樓,9,3731101655,25.1720828,121.437766,OK
984,新北市淡水區民族路３號２樓,9,3731101664,25.1371445,121.4603724,OK
985,新北市淡水區北新路１１１號１、２樓,9,3731101673,25.178408,121.4473743,OK
986,新北市淡水區中山北路２段１４號１樓（及夾層）,9,3731101682,25.1855099,121.4433284,OK
987,新北市淡水區北新路２號１、２樓,9,3731101708,25.1780169,121.4440092,OK
988,新北市淡水區中山路９２號１、２樓,9,3731101717,25.1706989,121.4426665,OK
989,新北市淡水區中山路９２號１、２樓,9,3731101726,25.1706989,121.4426665,OK
990,新北市汐止區康寧街２７９號,9,3731110029,25.0672545,121.6259474,OK
991,新北市汐止區中正路１２５號２樓,9,3731110038,25.069192,121.660272,OK
992,新北市汐止區大同路２段４３４號２樓,9,3731110047,25.066981,121.659352,OK
993,新北市汐止區中正路１６４號,9,3731110065,25.0695859,121.659362,OK
994,新北市汐止區翠峰街２３號１樓－２,9,3731110109,25.076357,121.642798,OK
995,新北市汐止區忠孝東路３８４號,9,3731110163,25.070108,121.665706,OK
996,新北市汐止區樟樹一路１４１巷１１號１樓,9,3731110172,25.066242,121.641797,OK
997,新北市汐止區大同路二段５７５號１樓、２樓,9,3731110207,25.070257,121.66321,OK
998,新北市汐止區中興路９５號,9,3731110216,25.064527,121.632524,OK
999,新北市汐止區樟樹一路１１９巷４號,9,3731110289,25.064427,121.641775,OK
1000,新北市汐止區明峰街８６號,9,3731110314,25.0712299,121.631341,OK
1001,新北市汐止區大同路２段５１９號,9,3731110341,25.0691,121.661445,OK
1002,新北市汐止區福德一路１７７巷６號,9,3731110430,25.065747,121.6361096,OK
1003,新北市汐止區忠孝東路３１４－１號,9,3731110467,25.0689161,121.6645109,OK
1004,新北市汐止區樟樹一路２０號１樓,9,3731110547,25.062411,121.64182,OK
1005,新北市汐止區鄉長路２段１０－１號,9,3731110574,25.0808003,121.6688855,OK
1006,新北市汐止區湖前街３５號１樓,9,3731110583,25.0696222,121.6321902,OK
1007,新北市汐止區大同路２段２９８號,9,3731110618,25.0663878,121.655004,OK
1008,新北市汐止區建成路３４號,8,3731110654,25.0731277,121.6628055,OK
1009,新北市汐止區新台五路２段６號,9,3731111679,25.0648548,121.6600966,OK
1010,新北市汐止區中興路１３５號１－２樓,9,3731111731,25.0655872,121.6316198,OK
1011,新北市汐止區連興街５０號,9,3731111759,25.063417,121.65441,OK
1012,新北市汐止區新台五路１段９６號,9,3731111777,25.060248,121.648379,OK
1013,新北市汐止區仁愛路１７號１樓,9,3731111795,25.064037,121.659369,OK
1014,新北市汐止區明峰街１３７號１樓,9,3731111802,25.0706332,121.6298758,OK
1015,新北市汐止區厚德里樟樹一路１３９巷１號１樓,9,3731111811,25.0659403,121.642139,OK
1016,新北市汐止區福德一路１１３－１號１樓,9,3731111839,25.0678339,121.6376796,OK
1017,新北市汐止區仁愛路１４５號１樓,9,3731111848,25.0645335,121.663475,OK
1018,新北市汐止區新台五路１段１７２號１、２樓,9,3731111857,25.0623934,121.6545462,OK
1019,新北市汐止區大同路二段３８０、３８２號１樓,9,3731111866,25.0670328,121.6579854,OK
1020,新北市汐止區仁愛路１１０號１樓,9,3731111875,25.063412,121.662614,OK
1021,新北市汐止區新台五路一段１４１號２樓,9,3731111884,25.0621578,121.6528924,OK
1022,新北市汐止區康寧街４１１號１樓,9,3731111893,25.0679871,121.6300588,OK
1023,新北市汐止區康寧街４６號１樓及吉林街３號１樓,9,3731111919,25.0667132,121.6185731,OK
1024,新北市汐止區新台五路１段１４１號３樓,9,3731111928,25.0621578,121.6528924,OK
1025,新北市汐止區福德一路２８、３０號１樓,9,3731111937,25.0694503,121.6387956,OK
1026,新北市汐止區仁愛路１１０號１樓,9,3731111946,25.063412,121.662614,OK
1027,新北市汐止區大同路２段６８９號１樓及建成路１８號２樓之３,9,3731111955,25.0722446,121.665105,OK
1028,新北市汐止區大同路２段６８９號１樓及建成路１８號２樓之３,9,3731111964,25.0722446,121.665105,OK
1029,新北市瑞芳區明燈路３段３４號,9,3731120016,25.1079209,121.807863,OK
1030,新北市瑞芳區明燈路３段３９－５號３樓,9,3731120025,25.107893,121.806937,OK
1031,新北市瑞芳區民生街５－１號１．２樓,9,3731120061,25.1080119,121.8061439,OK
1032,新北市瑞芳區中正路７６號,9,3731120070,25.107643,121.805729,OK
1033,新北市瑞芳區三爪子坑路８９號之１７－１樓,9,3731120089,25.1072446,121.8119439,OK
1034,新北市瑞芳區明燈路３段９４號,9,3731120098,25.1083868,121.8055393,OK
1035,新北市瑞芳區中山路２５號１、２樓,9,3731120114,25.107244,121.8047654,OK
1036,新北市土城區中央路１段２９８號１樓,9,3731130012,24.982166,121.443187,OK
1037,新北市土城區廣明街８１號,9,3731130021,24.994121,121.454797,OK
1038,新北市土城區裕生路８２巷１號,9,3731130058,24.9855935,121.4472152,OK
1039,新北市土城區裕民路１８５巷５號,9,3731130110,24.9848235,121.453648,OK
1040,新北市土城區立德路７４巷２號,9,3731130129,24.9865883,121.4639701,OK
1041,新北市土城區廣興街２９號,0,3731130138,,,OVER_QUERY_LIMIT
1042,新北市土城區中央路１段２３４號,0,3731130165,,,OVER_QUERY_LIMIT
1043,新北市土城區明德路１段４１號１樓,0,3731130183,,,OVER_QUERY_LIMIT
1044,新北市土城區和平路４－１號１樓,9,3731130236,24.974565,121.442568,OK
1045,新北市土城區中央路２段１９８號,9,3731130245,24.97588,121.441755,OK
1046,新北市土城區中央路２段２２３－８號,9,3731130254,24.973332,121.440749,OK
1047,新北市土城區學府路１段５３號１樓,9,3731130272,24.9883083,121.4575611,OK
1048,新北市土城區學府路１段１６８號,9,3731130316,24.9866452,121.4539223,OK
1049,新北市土城區延平街４３號,9,3731130334,24.992091,121.467888,OK
1050,新北市土城區裕民路２６１－１號１樓,9,3731130487,24.9826713,121.4551306,OK
1051,新北市土城區學府路１段３３號,9,3731130512,24.9883503,121.45803,OK
1052,新北市土城區中央路１段１６１號,9,3731130521,24.9875845,121.4465979,OK
1053,新北市土城區延和路２４４號,9,3731130530,24.989868,121.469637,OK
1054,新北市土城區慶安街３５號,9,3731130567,24.973202,121.441402,OK
1055,新北市土城區中央路４段６４號１、２樓，６６號１、２樓,9,3731130576,24.9600927,121.4179263,OK
1056,新北市土城區中央路４段１３９－２號,9,3731130629,24.9572108,121.4158383,OK
1057,新北市土城區延吉街２８８、２９０號,9,3731130665,24.9843055,121.4648725,OK
1058,新北市土城區裕民路８１號１樓,9,3731130683,24.987531,121.449994,OK
1059,新北市土城區學府路１段５６號１樓、２樓,9,3731130692,24.9885353,121.4573307,OK
1060,新北市土城區中央路２段４１號１樓,9,3731130718,24.979733,121.442936,OK
1061,新北市土城區中央路２段２２３號－１,9,3731130727,24.9733852,121.4406292,OK
1062,新北市土城區明德路２段２１１號,9,3731130736,24.9836237,121.4462285,OK
1063,新北市土城區裕民路２３６號１樓,9,3731130763,24.9836257,121.4538528,OK
1064,新北市土城區裕民路１５５號１樓,9,3731130772,24.985965,121.452272,OK
1065,新北市土城區中央路２段１７６號,9,3731130781,24.976332,121.441598,OK
1066,新北市土城區延吉街３３７號１樓,9,3731130790,24.9840496,121.4650643,OK
1067,新北市土城區清水路１８１號,9,3731131813,24.9816899,121.459421,OK
1068,新北市土城區延吉街１２４號,9,3731131859,24.9859387,121.4694922,OK
1069,新北市土城區學府路１段１５３號,9,3731131868,24.985955,121.4534342,OK
1070,新北市土城區中央路１段１５０、１５２號１樓,9,3731131877,24.9877479,121.4461525,OK
1071,新北市土城區裕民路４２號,9,3731131886,24.9882278,121.4481261,OK
1072,新北市土城區延吉街１４３號１樓,9,3731131895,24.986176,121.470503,OK
1073,新北市土城區明峰街４０號１樓,9,3731131902,24.9860335,121.4669418,OK
1074,新北市土城區青雲路１６４號,9,3731131911,24.9829479,121.4590247,OK
1075,新北市土城區中央路１段２６４－２號１樓,9,3731131920,24.9838895,121.4439169,OK
1076,新北市土城區青雲路２２６號１、２樓,9,3731131966,24.9809557,121.4589352,OK
1077,新北市土城區學府路１段１１３號１－２樓,9,3731131993,24.987391,121.4556069,OK
1078,新北市土城區延吉街１６８巷１號,9,3731132007,24.9855174,121.4682118,OK
1079,新北市土城區裕民路１０８號１、２樓,9,3731132016,24.9867043,121.4507397,OK
1080,新北市土城區承天路７號１樓,9,3731132025,24.9660363,121.4362539,OK
1081,新北市土城區金城路３段１７６號１、２樓,9,3731132034,24.987498,121.4680326,OK
1082,新北市土城區中央路１段２８３號１樓,9,3731132043,24.9844951,121.4445494,OK
1083,新北市土城區裕民路１４２號１樓,9,3731132052,24.9858848,121.4515569,OK
1084,新北市土城區光明街３號１樓,9,3731132098,24.9747839,121.442286,OK
1085,新北市土城區青雲路２７５號１樓,9,3731132114,24.9802891,121.4592161,OK
1086,新北市土城區學府路一段１７９號１樓、２樓,9,3731132132,24.9850991,121.4523704,OK
1087,新北市土城區學府路一段１７９號１樓、２樓,9,3731132141,24.9850991,121.4523704,OK
1088,新北市土城區金城路３段１９１號１、２樓,9,3731132150,24.9891169,121.469868,OK
1089,新北市土城區延吉街２０６號１、２樓，２０８號１、２樓,9,3731132169,24.9884057,121.4723952,OK
1090,新北市土城區延吉街２０６號１、２樓，２０８號１、２樓,9,3731132178,24.9884057,121.4723952,OK
1091,新北市土城區青雲路２２６號１、２樓,9,3731132187,24.9809557,121.4589352,OK
1092,新北市土城區中央路２段３３２號１、２樓,9,3731132196,24.9723879,121.439873,OK
1093,新北市土城區中央路２段３３２號１樓、２樓,9,3731132203,24.9723879,121.439873,OK
1094,新北市土城區中央路４段７６－５號２樓,9,3731132212,24.9598017,121.4190698,OK
1095,新北市土城區延吉街２０６號１、２樓，２０８號１、２樓,9,3731132221,24.9884057,121.4723952,OK
1096,新北市土城區中央路２段３３２號１樓、２樓,9,3731132230,24.9723879,121.439873,OK
1097,新北市蘆洲區復興路１１５號,9,3731140018,25.0881748,121.4772911,OK
1098,新北市蘆洲區中山二路１２３號,9,3731140027,25.0815652,121.4722708,OK
1099,新北市蘆洲區中華街３０號,9,3731140054,25.0812703,121.4626172,OK
1100,新北市蘆洲區中正路２１、２３號１樓,9,3731140072,25.0819472,121.4713676,OK
1101,新北市蘆洲區長安街１１２號,9,3731140090,25.081594,121.460857,OK
1102,新北市蘆洲區民族路４６８號,9,3731140125,25.0917847,121.4716457,OK
1103,新北市蘆洲區中正路７２號,0,3731140161,,,OVER_QUERY_LIMIT
1104,新北市蘆洲區民族路２６９號１樓,9,3731140189,25.0908062,121.476046,OK
1105,新北市蘆洲區中正路１１６號,9,3731140198,25.0847887,121.4694648,OK
1106,新北市蘆洲區民族路４２６巷８號１樓,9,3731140223,25.092294,121.4736436,OK
1107,新北市蘆洲區中山二路８３號,9,3731140232,25.0817961,121.4732021,OK
1108,新北市蘆洲區集賢路２２４巷５４號１樓,9,3731140269,25.0880192,121.4810445,OK
1109,新北市蘆洲區長安街７６號１樓２樓,9,3731140278,25.0674594,121.5013781,OK
1110,新北市蘆洲區中華街１３號,9,3731140321,25.081681,121.463772,OK
1111,新北市蘆洲區三民路３號１樓、２樓,9,3731140358,25.0819621,121.4757374,OK
1112,新北市蘆洲區信義路２４９號,9,3731140385,25.0843867,121.4790103,OK
1113,新北市蘆洲區長安街２１８號１－２樓,9,3731140394,25.0844501,121.4584822,OK
1114,新北市蘆洲區民權路８４號,9,3731140447,25.0877019,121.4745901,OK
1115,新北市蘆洲區光華路６９號１樓,9,3731140483,25.082619,121.468152,OK
1116,新北市蘆洲區永平街２７號,9,3731140492,25.0908395,121.4585932,OK
1117,新北市蘆洲區民族路３４９號１樓,9,3731140527,25.0917954,121.4723361,OK
1118,新北市蘆洲區民族路５號１樓,9,3731141622,25.0840501,121.4756316,OK
1119,新北市蘆洲區民族路１０５號,9,3731141631,25.0866745,121.4796825,OK
1120,新北市蘆洲區復興路７２號,9,3731141640,25.0864698,121.4750254,OK
1121,新北市蘆洲區永平街３２之１號,9,3731141748,25.09095,121.4587608,OK
1122,新北市蘆洲區中華街４１號之１．１－２樓,9,3731141766,25.0812282,121.4629694,OK
1123,新北市蘆洲區民族路１６８號１樓,9,3731141775,25.0864304,121.4798449,OK
1124,新北市蘆洲區長安街３３號,9,3731141784,25.079308,121.463591,OK
1125,新北市蘆洲區得勝街１６１號１樓,9,3731141793,25.0828755,121.4713498,OK
1126,新北市蘆洲區光華路６８號,9,3731141800,25.0828791,121.4681645,OK
1127,新北市蘆洲區三民路１２０號１樓,9,3731141828,25.0875169,121.4713588,OK
1128,新北市蘆洲區中正路１５５號,9,3731141846,25.0849089,121.4691289,OK
1129,新北市蘆洲區長榮路３７５號,9,3731141864,25.0889171,121.4592773,OK
1130,新北市蘆洲區光復路９號１樓,9,3731141873,25.0843353,121.462219,OK
1131,新北市蘆洲區集賢路３５２號,9,3731141882,25.084041,121.480766,OK
1132,新北市蘆洲區長榮路６５號１樓,9,3731141891,25.0836658,121.4619829,OK
1133,新北市蘆洲區民權路１１４號１樓,0,3731141908,,,OVER_QUERY_LIMIT
1134,新北市蘆洲區長榮路１７３號１樓,9,3731141926,25.0842908,121.4613873,OK
1135,新北市蘆洲區長安街１８７號１樓,9,3731141935,25.0817379,121.460442,OK
1136,新北市蘆洲區長榮路４３－１號１樓,9,3731141953,25.08284,121.462806,OK
1137,新北市蘆洲區中山一路２４５、２４７號１樓,9,3731141980,25.0804364,121.4731027,OK
1138,新北市蘆洲區中山一路１３８號１樓,9,3731141999,25.081848,121.476327,OK
1139,新北市蘆洲區長安街２４７號１－２樓,9,3731142003,25.0867859,121.4579162,OK
1140,新北市蘆洲區信義路２６２號１樓,9,3731142012,25.0868318,121.4782655,OK
1141,新北市蘆洲區中正路２４號１樓,9,3731142021,25.0822676,121.4714413,OK
1142,新北市蘆洲區長榮路４１號４１－１號１樓,9,3731142030,25.0827979,121.462849,OK
1143,新北市蘆洲區重陽街６２號１樓,9,3731142049,25.0836814,121.481561,OK
1144,新北市蘆洲區集賢路３４２號１樓,9,3731142058,25.08428,121.480803,OK
1145,新北市蘆洲區光榮路９７巷６９號１樓（含夾層）,9,3731142067,25.0904529,121.4628271,OK
1146,新北市蘆洲區民權路８７號１樓,9,3731142076,25.0887457,121.4730171,OK
1147,新北市蘆洲區光明路１０號,9,3731142085,25.0866585,121.4608769,OK
1148,新北市蘆洲區信義路２２８號２樓,9,3731142094,25.0854051,121.4789512,OK
1149,新北市蘆洲區中正路３５１號１樓及夾層,9,3731142101,25.0896336,121.4653688,OK
1150,新北市蘆洲區中山一路４２號１、２樓,9,3731142110,25.080969,121.479545,OK
1151,新北市蘆洲區復興路１１２號１樓,9,3731142129,25.0871992,121.4762609,OK
1152,新北市蘆洲區民族路５８號１樓,9,3731142138,25.0845512,121.4772328,OK
1153,新北市蘆洲區永樂街３３號１樓,9,3731142147,25.0881832,121.4580323,OK
1154,新北市蘆洲區中山一路１１９號１樓,9,3731142156,25.0815434,121.476076,OK
1155,新北市蘆洲區復興路６３號１、２樓,9,3731142165,25.0872649,121.4759733,OK
1156,新北市五股區成泰路１段２３５－１１號２樓,9,3731150014,25.0796432,121.436345,OK
1157,新北市五股區凌雲路１段５７號,9,3731150096,25.1009031,121.4512738,OK
1158,新北市五股區工商路１７０號１樓,9,3731150121,25.0873939,121.433153,OK
1159,新北市五股區西雲路２３７號,9,3731150238,25.0974171,121.4489939,OK
1160,新北市五股區五福路４３號,9,3731150256,25.0897433,121.4333283,OK
1161,新北市五股區成泰路１段１４９號,9,3731150265,25.0764224,121.435067,OK
1162,新北市五股區成泰路２段５９號,9,3731151299,25.0835148,121.4379071,OK
1163,新北市五股區成泰路２段２０８號１樓,9,3731151333,25.0851845,121.4389431,OK
1164,新北市五股區成泰路２段１９４號,9,3731151351,25.0851405,121.4389142,OK
1165,新北市五股區自強路１３１號１樓,9,3731151360,25.0699223,121.4321865,OK
1166,新北市五股區成泰路２段１０７號１、２樓,9,3731151422,25.0829776,121.437669,OK
1167,新北市五股區成泰路２段１０７號２樓,9,3731151431,25.0829776,121.437669,OK
1168,新北市五股區成泰路二段１９４號２樓,9,3731151440,25.0851405,121.4389142,OK
1169,新北市五股區工商路２６號１樓,9,3731151459,25.0839042,121.4392234,OK
1170,新北市五股區成泰路２段１８０號,9,3731151468,25.0851405,121.4389142,OK
1171,新北市五股區成泰路２段１８０號１樓,9,3731151477,25.0851405,121.4389142,OK
1172,新北市泰山區明志路３段２０９號,9,3731160010,25.0385345,121.4240406,OK
1173,新北市泰山區泰林路２段１９３號,9,3731160047,25.0606719,121.433747,OK
1174,新北市泰山區明志路３段１７７號,9,3731160056,25.039185,121.4244681,OK
1175,新北市泰山區明志路１段２０２號,9,3731160065,25.0619832,121.4328783,OK
1176,新北市泰山區明志路１段２２９號,9,3731160083,25.0610447,121.4324738,OK
1177,新北市泰山區泰林路２段２９４號,9,3731160092,25.0633084,121.4295637,OK
1178,新北市泰山區明志路２段３４４號２樓,9,3731160154,25.045357,121.4259079,OK
1179,新北市泰山區明志路１段２９２號１樓,9,3731160163,25.0598271,121.4318791,OK
1180,新北市泰山區明志路２段７５號,9,3731161188,25.0523972,121.4288087,OK
1181,新北市泰山區泰林路２段１１２號,9,3731161197,25.059797,121.4342649,OK
1182,新北市泰山區明志路１段７號,9,3731161204,25.0661092,121.4336809,OK
1183,新北市泰山區明志路１段１２９號１樓,9,3731161213,25.0633615,121.4333965,OK
1184,新北市泰山區明志路１段２０１號１樓,9,3731161222,25.0614931,121.4327565,OK
1185,新北市泰山區仁愛路５８號１樓,9,3731161231,25.0548419,121.4319966,OK
1186,新北市泰山區明志路１段３８５號１、２樓,9,3731161240,25.0577121,121.4308511,OK
1187,新北市泰山區明志路１段２０１號１樓,9,3731161259,25.0614931,121.4327565,OK
1188,新北市林口區中山路１８８號２樓－１,9,3731170034,25.0791514,121.3891882,OK
1189,新北市林口區中正路２９５號,9,3731170043,25.0263281,121.4176489,OK
1190,新北市林口區中山路１２９號１樓,9,3731170052,25.0786772,121.3921812,OK
1191,新北市林口區中正路１４３號,9,3731170061,25.0772615,121.3930279,OK
1192,新北市林口區中山路９７巷１號,9,3731170070,25.032142,121.416839,OK
1193,新北市林口區麗園１街６巷２號１樓－１,9,3731170089,25.0707611,121.3751858,OK
1194,新北市林口區文化二路１段１２０巷３號１樓,9,3731171102,25.0671581,121.365187,OK
1195,新北市林口區竹林路１６１號,9,3731171139,25.0800369,121.3886977,OK
1196,新北市林口區文化二路１段２０巷９號,9,3731171148,25.0672824,121.3653706,OK
1197,新北市林口區麗園一街９巷２號１樓－４、文化二路１段５７９號１,9,3731171166,25.0716712,121.374666,OK
1198,新北市林口區菁湖里竹林路１６６號１樓,9,3731171184,25.079993,121.3887793,OK
1199,新北市林口區忠孝路３８１號,9,3731171193,25.0719349,121.3689506,OK
1200,新北市林口區仁愛路二段５２０號,9,3731171200,25.0781707,121.3727726,OK
1201,新北市林口區仁愛路２段８號１樓,9,3731171219,25.0763914,121.3859234,OK
1202,新北市林口區文化三路一段３５８號１樓,9,3731171228,25.071448,121.3636051,OK
1203,新北市林口區中山路１９０號１、２、３樓,9,3731171237,25.0584369,121.4451963,OK
1204,新北市林口區仁愛路二段２４號１、２樓２６號１、２、３樓,9,3731171246,25.0760714,121.38549,OK
1205,新北市林口區仁愛路二段２４號１、２樓２６號１、２、３樓,9,3731171255,25.0760714,121.38549,OK
1206,新北市林口區忠孝一路２０號１樓及夾層,9,3731171264,25.0678332,121.3780908,OK
1207,新北市深坑區北深路２段１９６號,9,3731180012,25.0025807,121.6151789,OK
1208,新北市深坑區北深路２段１４７號,9,3731180030,25.0022235,121.6144711,OK
1209,新北市深坑區北深路３段２５５號,9,3731180058,25.0042983,121.5996918,OK
1210,新北市深坑區北深路２段１２５號,9,3731180076,25.0030739,121.6163522,OK
1211,新北市深坑區埔新街１００號,9,3731181082,25.0021087,121.6186092,OK
1212,新北市石碇區石崁２０號１樓,9,3731190527,24.9913853,121.6578243,OK
1213,新北市坪林區水柳腳路６４號１樓,7,3731200019,24.937738,121.702189,OK
1214,新北市三芝區民生街１２號,9,3731210015,25.2576263,121.5037352,OK
1215,新北市三芝區中正路１段４１號１樓,9,3731210033,25.2582578,121.5032071,OK
1216,新北市三芝區中山路１段９巷４號,9,3731210042,25.2576529,121.5008285,OK
1217,新北市三芝區中山路１段９巷４號１樓,9,3731210051,25.2576529,121.5008285,OK
1218,新北市石門區中央路５號１樓,9,3731220511,24.9627793,121.4256749,OK
1219,新北市八里區訊塘里中山路２段２９９號,9,3731230026,25.1499183,121.4044247,OK
1220,新北市八里區中山路２段２２８號１樓,0,3731230044,,,ZERO_RESULTS
1221,新北市八里區大崁里中山路１段５７號,9,3731231069,25.1589821,121.4233763,OK
1222,新北市八里區龍米路一段１２７、１２９號１－２樓,9,3731231096,25.1256634,121.4529138,OK
1223,新北市平溪區中華街４４號,9,3731240522,25.0252048,121.7391348,OK
1224,新北市雙溪區中華路７５號,9,3731250019,25.0382694,121.8658681,OK
1225,新北市貢寮區仁愛路３１號１樓,9,3731260533,25.0528254,121.9244,OK
1226,新北市金山區中山路１４４號,9,3731270011,25.2204845,121.638839,OK
1227,新北市金山區信義路１８號,9,3731270048,25.220986,121.6373509,OK
1228,新北市金山區中山路１４３號,9,3731270066,25.2199944,121.639195,OK
1229,新北市萬里區萬里里瑪鋉路９３號,9,3731280017,25.1776749,121.6894753,OK
1230,新北市烏來區忠治里堰堤４５號,7,3731290522,24.870012,121.548551,OK
1231,宜蘭縣宜蘭市神農路１段２０２號,9,3734010017,24.7490101,121.7503304,OK
1232,宜蘭縣宜蘭市中山路３段１８３號,9,3734010026,24.760112,121.753086,OK
1233,宜蘭縣宜蘭市中山路３段４１號,9,3734010071,24.757043,121.753305,OK
1234,宜蘭縣宜蘭市中山路１８０號,9,3734010099,24.7706231,121.757168,OK
1235,宜蘭縣宜蘭市民權里中華路３７號,9,3734010106,24.7467771,121.753833,OK
1236,宜蘭縣宜蘭市新興路６２號,9,3734010115,24.7598129,121.7582176,OK
1237,宜蘭縣宜蘭市康樂路９６號,9,3734010124,24.7562791,121.7545502,OK
1238,宜蘭縣宜蘭市農權路２１１號１樓,0,3734010133,,,OVER_QUERY_LIMIT
1239,宜蘭縣宜蘭市泰山路１５號,9,3734010142,24.7545645,121.7480292,OK
1240,宜蘭縣宜蘭市健康路３段３６號,9,3734010151,24.751435,121.7501508,OK
1241,宜蘭縣宜蘭市民權新路２－１８號,9,3734010160,24.7510389,121.7526678,OK
1242,宜蘭縣宜蘭市農權路２段１５號,9,3734010188,24.7480697,121.7447907,OK
1243,宜蘭縣宜蘭市女中路３段５６－１號,9,3734010204,24.746228,121.740855,OK
1244,宜蘭縣宜蘭市復興路３段６８號,9,3734010213,24.7513751,121.739842,OK
1245,宜蘭縣宜蘭市復興里健康路２段３６號,9,3734010240,24.7469321,121.7518031,OK
1246,宜蘭縣宜蘭市新民里新民路１６３號１樓,9,3734010259,24.7576269,121.7533648,OK
1247,宜蘭縣宜蘭市神農里和睦路２３－２號,9,3734010268,24.753457,121.7561638,OK
1248,宜蘭縣宜蘭市神農路２段２２號,9,3734010286,24.7502559,121.7507757,OK
1249,宜蘭縣宜蘭市中山路２９號２樓之１,9,3734010295,24.7674636,121.7556396,OK
1250,宜蘭縣宜蘭市崇聖街３５－１號,9,3734011336,24.7558493,121.7548022,OK
1251,宜蘭縣宜蘭市女中路３段２６－２號１樓,9,3734011345,24.74578,121.741971,OK
1252,宜蘭縣宜蘭市宜中路１６５號,9,3734011354,24.749767,121.743479,OK
1253,宜蘭縣宜蘭市中山路２段３８２號,9,3734011363,24.7510612,121.7536285,OK
1254,宜蘭縣宜蘭市女中路３段３００號,9,3734011381,24.7473306,121.7361178,OK
1255,宜蘭縣宜蘭市黎明３路１段４２號,9,3734011390,24.752239,121.768149,OK
1256,宜蘭縣宜蘭市自強路１１６－５號,9,3734011407,24.7429721,121.7495636,OK
1257,宜蘭縣宜蘭市長春路１４１號,9,3734011416,24.7507289,121.7495095,OK
1258,宜蘭縣宜蘭市神農路１段１２５號１樓,9,3734011425,24.749791,121.7504291,OK
1259,宜蘭縣宜蘭市民族路３１２號,9,3734011434,24.7514791,121.7463433,OK
1260,宜蘭縣宜蘭市延平路３８之３４號,9,3734011443,24.7556758,121.7657876,OK
1261,宜蘭縣宜蘭市公園路５１９號１、２樓,9,3734011452,24.7412434,121.7557679,OK
1262,宜蘭縣宜蘭市泰山路８５巷３號,9,3734011461,24.7538692,121.7451275,OK
1263,宜蘭縣宜蘭市女中路２段４３１號,9,3734011470,24.7446896,121.7508899,OK
1264,宜蘭縣宜蘭市縣政一街７號１樓,9,3734011489,24.7268428,121.7659804,OK
1265,宜蘭縣羅東鎮民生路１０７號,9,3734020013,24.6777317,121.7660862,OK
1266,宜蘭縣羅東鎮公正路１０３號,9,3734020040,24.678243,121.770803,OK
1267,宜蘭縣羅東鎮民權路５６巷７號,9,3734020068,24.6757086,121.7699441,OK
1268,宜蘭縣羅東鎮中正路２１２號,9,3734020077,24.6778688,121.772036,OK
1269,宜蘭縣羅東鎮中山路３段３４８號,9,3734020120,24.6750666,121.766909,OK
1270,宜蘭縣羅東鎮中正街１號,9,3734020139,24.672996,121.769756,OK
1271,宜蘭縣羅東鎮中正北路９號,9,3734020148,24.6784203,121.7718331,OK
1272,宜蘭縣羅東鎮居仁里南門路５６號,6,3734020166,24.675606,121.7708337,OK
1273,宜蘭縣羅東鎮興東南路１４８號,9,3734020175,24.671891,121.767804,OK
1274,宜蘭縣羅東鎮中山路３段４４０號,9,3734020200,24.6747662,121.7652987,OK
1275,宜蘭縣羅東鎮民生路１０６號,9,3734020237,24.6775809,121.7675784,OK
1276,宜蘭縣羅東鎮南豪里興東南路８５號,0,3734020264,,,OVER_QUERY_LIMIT
1277,宜蘭縣羅東鎮興東南路１５７號,9,3734020273,24.6710138,121.7680115,OK
1278,宜蘭縣羅東鎮天津路５７號,9,3734020282,24.6810625,121.770276,OK
1279,宜蘭縣羅東鎮南豪里中正南路６７－２號,9,3734020291,24.6696934,121.771434,OK
1280,宜蘭縣羅東鎮公正路１５４號４樓,9,3734020308,24.678859,121.769188,OK
1281,宜蘭縣羅東鎮興東路２３７號,9,3734020317,24.6829444,121.7698759,OK
1282,宜蘭縣羅東鎮維揚路３０號,9,3734020326,24.6724351,121.7624671,OK
1283,宜蘭縣羅東鎮中山路２段４３３號,9,3734020335,24.6750975,121.7752976,OK
1284,宜蘭縣羅東鎮中山路４段２號２－１樓,9,3734020344,24.6743179,121.7633709,OK
1285,宜蘭縣羅東鎮興東路１５６號,9,3734020353,24.6807111,121.7693655,OK
1286,宜蘭縣羅東鎮中正南路１２３－１號,9,3734020362,24.6706331,121.7708944,OK
1287,宜蘭縣羅東鎮興東路２５７號,9,3734021378,24.6835708,121.7701314,OK
1288,宜蘭縣羅東鎮公正路４１５號,9,3734021387,24.6803991,121.7580467,OK
1289,宜蘭縣羅東鎮中華路６８號,9,3734021396,24.6785217,121.7671769,OK
1290,宜蘭縣羅東鎮興東南路２９號,9,3734021403,24.669027,121.771144,OK
1291,宜蘭縣羅東鎮公正路２３７號,9,3734021412,24.67962,121.7655452,OK
1292,宜蘭縣羅東鎮維揚路７１號１樓,9,3734021421,24.672091,121.761647,OK
1293,宜蘭縣羅東鎮中山路３段４０９號,9,3734021430,24.674296,121.7640368,OK
1294,宜蘭縣羅東鎮公正路２８８號,9,3734021449,24.6799684,121.7649976,OK
1295,宜蘭縣羅東鎮敬業路５０號,9,3734021458,24.6750814,121.759289,OK
1296,宜蘭縣羅東鎮光榮路４９７號１、２樓及４９５號２樓,9,3734021467,24.6811776,121.7775749,OK
1297,宜蘭縣羅東鎮倉前路５９號１樓,9,3734021476,24.680504,121.770598,OK
1298,宜蘭縣羅東鎮維揚路１６號,9,3734021485,24.6724584,121.7629682,OK
1299,宜蘭縣羅東鎮興東路１０６號１、２樓,9,3734021494,24.6799892,121.7691132,OK
1300,宜蘭縣羅東鎮公正路１１６號１樓,9,3734021501,24.678782,121.77047,OK
1301,宜蘭縣羅東鎮公正路３１３號１樓,9,3734021510,24.6802028,121.7625309,OK
1302,宜蘭縣羅東鎮興東南路８５號１、２樓,9,3734021529,24.6699604,121.7697658,OK
1303,宜蘭縣羅東鎮興東路２０５號１樓,9,3734021538,24.681953,121.7695621,OK
1304,宜蘭縣蘇澳鎮中山路９２號,9,3734030019,24.6001554,121.83444,OK
1305,宜蘭縣蘇澳鎮南興路３０號,9,3734030028,24.5807383,121.866927,OK
1306,宜蘭縣蘇澳鎮光復路８號,9,3734030064,24.5965176,121.8529182,OK
1307,宜蘭縣蘇澳鎮中山路１段１３７號,9,3734031070,24.5962227,121.8401038,OK
1308,宜蘭縣蘇澳鎮新馬路９號,9,3734031098,24.6180025,121.834164,OK
1309,宜蘭縣頭城鎮頭濱路３段３２７號,9,3734040015,24.8539841,121.822893,OK
1310,宜蘭縣頭城鎮青雲路２段３５２號,9,3734040033,24.845411,121.8082265,OK
1311,宜蘭縣頭城鎮城西里開蘭路８５－４號,9,3734040042,24.856835,121.822911,OK
1312,宜蘭縣頭城鎮青雲路３段１７２號,9,3734040060,24.8572109,121.825263,OK
1313,宜蘭縣礁溪鄉中山路１段２１６號,9,3734050011,24.8202159,121.7708523,OK
1314,宜蘭縣礁溪鄉礁溪路４段１８１號,9,3734050039,24.8226861,121.769864,OK
1315,宜蘭縣礁溪鄉礁溪路１段２４６號,9,3734050057,24.7884521,121.7619392,OK
1316,宜蘭縣礁溪鄉礁溪路４段１５９號,9,3734050066,24.822646,121.769948,OK
1317,宜蘭縣礁溪鄉礁溪路４段６９號,9,3734050075,24.8189453,121.7686927,OK
1318,宜蘭縣壯圍鄉壯五路２６５號,9,3734060017,24.7463864,121.7854655,OK
1319,宜蘭縣壯圍鄉壯五路２６４號,9,3734061023,24.746748,121.785281,OK
1320,宜蘭縣員山鄉坡城路５３巷５號,9,3734070513,24.779911,121.6994429,OK
1321,宜蘭縣員山鄉員山路１段１６０號,9,3734070522,24.7462551,121.7277909,OK
1322,宜蘭縣冬山鄉冬山路２５５號,9,3734080019,24.6414489,121.7865485,OK
1323,宜蘭縣冬山鄉義成路３段４３８號,9,3734080028,24.6661182,121.767738,OK
1324,宜蘭縣冬山鄉照安路３３巷１８號１樓,9,3734080037,24.6314746,121.7939031,OK
1325,宜蘭縣五結鄉利澤路６８號,9,3734090015,24.6675848,121.8227416,OK
1326,宜蘭縣五結鄉協和村五結路２段３１７巷６號,9,3734090024,24.6848572,121.8000369,OK
1327,宜蘭縣三星鄉義德村義興路８９號,9,3734100025,24.6675063,121.6497263,OK
1328,金門縣金城鎮南門里９鄰民族路１６７號,9,3790011034,24.4301303,118.317684,OK
1329,金門縣金城鎮民生路６７號,9,3790011043,24.4362074,118.31877,OK
1330,金門縣金城鎮民生路２４號,9,3790011052,24.4345894,118.3195933,OK
1331,金門縣金城鎮環島西路１段１０１號,9,3790011114,24.4277267,118.3214318,OK
1332,金門縣金城鎮民權路２３號,9,3790011132,24.431519,118.3136924,OK
1333,金門縣金城鎮民生路２７巷１０號,9,3790011141,24.4345181,118.3188867,OK
1334,金門縣金城鎮南門里２０鄰民族路２７６號,9,3790011150,24.4304151,118.3149206,OK
1335,金門縣金城鎮中興路１９９號,9,3790011169,24.434333,118.319697,OK
1336,金門縣金城鎮民權路１３７號,9,3790011178,24.4346713,118.3162054,OK
1337,金門縣金城鎮中興路１６８號,9,3790011187,24.434303,118.319715,OK
1338,金門縣金沙鎮五福街３０號,9,3790020515,24.4880251,118.4135363,OK
1339,金門縣金沙鎮國中路１－６號,9,3790020560,24.4886324,118.4138776,OK
1340,金門縣金湖鎮新市里中正路４號,9,3790030017,24.4403594,118.4168044,OK
1341,金門縣金湖鎮山外黃海路３７號,9,3790031036,24.4434584,118.4151376,OK
1342,金門縣金寧鄉伯玉路二段２２３－２號,9,3790040526,24.4408554,118.3350652,OK
1343,金門縣烈嶼鄉東林街１６７號１樓,9,3790050522,24.4275974,118.2484357,OK
1344,台北市松山區撫遠街３７號,9,3801010054,25.0652442,121.5673267,OK
1345,台北市松山區長春路４４６號,9,3801010090,25.0544229,121.5452782,OK
1346,台北市松山區撫遠街３６８號１樓,9,3801010205,25.063405,121.5657426,OK
1347,台北市松山區光復南路６巷４６號,9,3801010287,25.0474368,121.5564407,OK
1348,台北市松山區新東街６６巷１８號,9,3801010296,25.0623604,121.5660422,OK
1349,台北市松山區南京東路５段２９１巷９號１樓,9,3801010394,25.0520843,121.5662734,OK
1350,台北市松山區南京東路５段４６號２樓,9,3801010518,25.0512896,121.5598367,OK
1351,台北市松山區延吉街１１號５樓－５,9,3801011748,25.0466631,121.553604,OK
1352,台北市松山區南京東路４段１０２號４樓,9,3801011855,25.0514751,121.5543337,OK
1353,台北市松山區南京東路５段１２３巷２弄２５號,9,3801011926,25.0521574,121.5618144,OK
1354,台北市松山區八德路４段２０１號１樓,9,3801012030,25.0489628,121.5638054,OK
1355,台北市松山區八德路３段２１２號１樓,9,3801012049,25.047841,121.556789,OK
1356,台北市松山區延吉街４６巷４號１樓,9,3801012094,25.045576,121.553326,OK
1357,台北市松山區南京東路５段２５１巷２４弄１９號１樓,9,3801012101,25.0523407,121.5645656,OK
1358,台北市松山區八德路４段６１、６３號１樓,9,3801012138,25.048543,121.559848,OK
1359,台北市松山區八德路４段２２９號１樓,9,3801012156,25.0490229,121.5644839,OK
1360,台北市松山區八德路３段１２巷５２弄１０號,9,3801012174,25.0462342,121.550045,OK
1361,台北市松山區南京東路４段１９３號,9,3801012218,25.0518208,121.5567669,OK
1362,台北市松山區南京東路５段２０６號１樓,9,3801012236,25.0511856,121.5649611,OK
1363,台北市松山區延吉街３８號,9,3801012249,25.0455989,121.5536583,OK
1364,台北市松山區民生東路５段５６號１樓,9,3801012254,25.058259,121.558086,OK
1365,台北市松山區八德路３段７３號１樓,9,3801012272,25.0483675,121.5529046,OK
1366,台北市松山區延吉街１８號１樓,9,3801012290,25.0468661,121.553372,OK
1367,台北市松山區民生東路５段９７號１樓,9,3801012307,25.058842,121.559799,OK
1368,台北市松山區復興北路３３３號４樓－３、－４,9,3801012325,25.063359,121.5451967,OK
1369,台北市松山區民生東路五段１３８巷３號２樓之５,9,3801012361,25.0584496,121.5616565,OK
1370,台北市松山區復興北路３６１巷８號,9,3801012389,25.0603254,121.545432,OK
1371,台北市松山區延壽街４８號,9,3801012398,25.0570685,121.5674276,OK
1372,台北市松山區民生東路５段２０３號,9,3801012405,25.0592735,121.5665106,OK
1373,台北市松山區南京東路５段２８０號,9,3801012423,25.0511283,121.5670666,OK
1374,台北市松山區三民路３７號,9,3801012432,25.0558357,121.5635581,OK
1375,台北市松山區八德路４段１６８號,9,3801012441,25.0486088,121.5631578,OK
1376,台北市松山區南京東路５段２８０號,9,3801012450,25.0511283,121.5670666,OK
1377,台北市松山區南京東路５段２８０號,9,3801012469,25.0511283,121.5670666,OK
1378,台北市松山區南京東路５段２８０號,9,3801012478,25.0511283,121.5670666,OK
1379,台北市松山區民生東路５段９７號,9,3801012487,25.058842,121.559799,OK
1380,台北市松山區八德路４段２４５巷２９號,9,3801012496,25.0504593,121.5645256,OK
1381,台北市松山區民生東路５段９７號,0,3801012503,,,OVER_QUERY_LIMIT
1382,台北市大安區羅斯福路３段２７５號３樓,0,3801020015,,,OVER_QUERY_LIMIT
1383,台北市大安區泰順街１７號１樓,0,3801020050,,,OVER_QUERY_LIMIT
1384,台北市大安區樂業街７８號,9,3801020078,25.0219196,121.5507829,OK
1385,台北市大安區通化街５７巷２９號,9,3801020158,25.030542,121.5550348,OK
1386,台北市大安區信義路２段８０號,9,3801020274,25.0341198,121.5264883,OK
1387,台北市大安區延吉街２３３－３號２樓,9,3801020532,25.0367898,121.5556347,OK
1388,台北市大安區信義路３段１２８號１樓,9,3801020658,25.0332839,121.5391436,OK
1389,台北市大安區復興南路２段３２１號１樓,9,3801020694,25.0238598,121.5436565,OK
1390,台北市大安區復興南路１段１１５號２樓,9,3801020747,25.0435873,121.5441239,OK
1391,台北市大安區基隆路２段１９６號１樓,9,3801020872,25.0240459,121.551792,OK
1392,台北市大安區大安路１段７３號４樓,9,3801020890,25.0423018,121.5463185,OK
1393,台北市大安區忠孝東路４段４８號３樓．,9,3801020934,25.0414226,121.5448616,OK
1394,台北市大安區光復南路４２０巷２１號,9,3801020952,25.0363208,121.5562288,OK
1395,台北市大安區羅斯福路３段２９７之２號２樓,9,3801022036,25.017621,121.531729,OK
1396,台北市大安區忠孝東路３段２２９號１樓,9,3801022072,25.0418954,121.5403491,OK
1397,台北市大安區青田街５巷１９號,9,3801022090,25.028712,121.532727,OK
1398,台北市大安區四維路１７０巷２９號,9,3801022116,25.0283764,121.5467801,OK
1399,台北市大安區信義路３段１９０之２號１樓,9,3801022134,25.0332037,121.5429205,OK
1400,台北市大安區師大路１０２巷３號１樓,9,3801022143,25.022343,121.52812,OK
1401,台北市大安區復興南路２段１３１號,9,3801022161,25.0289729,121.5437699,OK
1402,台北市大安區仁愛路４段３００巷９弄２號,9,3801022269,25.0369127,121.5548098,OK
1403,台北市大安區和平東路３段２２８巷７號１樓,9,3801022278,25.0219401,121.5544935,OK
1404,台北市大安區信義路３段１７２號３樓,9,3801022330,25.0331736,121.5420866,OK
1405,台北市大安區忠孝東路４段２１６巷３２弄８號２樓,9,3801022367,25.0398061,121.5525596,OK
1406,台北市大安區通化街１９巷７號,9,3801022410,25.0317872,121.5548949,OK
1407,台北市大安區瑞安街２０８巷２４弄１２號,9,3801022438,25.0286391,121.5401285,OK
1408,台北市大安區忠孝東路３段１５４號２樓,9,3801022492,25.0414599,121.5380372,OK
1409,台北市大安區和平東路３段３２０號,9,3801022607,25.0199358,121.5569645,OK
1410,台北市大安區和平東路２段２２１號,9,3801022705,25.0251904,121.5427532,OK
1411,台北市大安區忠孝東路４段６０號３樓之３,9,3801022750,25.041394,121.545296,OK
1412,台北市大安區和平東路２段１０１號,9,3801022787,25.025571,121.5400471,OK
1413,台北市大安區忠孝東路３段２５１巷５弄１號,9,3801022796,25.0427049,121.54177,OK
1414,台北市大安區忠孝東路４段３４１號８樓,9,3801022803,25.0415735,121.5572638,OK
1415,台北市大安區敦化南路１段２３８巷４號,9,3801022821,25.0400723,121.5478965,OK
1416,台北市大安區光復南路５５８號,9,3801022849,25.0345004,121.5573005,OK
1417,台北市大安區信義路４段２６５巷４８號,9,3801022885,25.035046,121.555579,OK
1418,台北市大安區光復南路３９０號２樓,9,3801022929,25.037278,121.5573263,OK
1419,台北市大安區羅斯福路３段２８３巷７弄８號,9,3801022969,25.0186079,121.5312662,OK
1420,台北市大安區羅斯福路３段３７號３樓,9,3801022978,25.0235425,121.5253535,OK
1421,台北市大安區信義路４段２６７號２樓,9,3801022987,25.0333371,121.5543257,OK
1422,台北市大安區復興南路１段１３０號、１３０號２樓,9,3801022996,25.042924,121.5435338,OK
1423,臺北市大安區復興南路２段１７３之１號２樓,9,3801023015,25.0274791,121.5437224,OK
1424,臺北市大安區忠孝東路４段２１０之１號９樓,9,3801023024,25.0412312,121.5526353,OK
1425,台北市大安區新生南路２段２號２樓之４,9,3801023033,25.03331,121.532393,OK
1426,台北市大安區忠孝東路４段２７０號２樓之１,9,3801023042,25.0411915,121.5547993,OK
1427,台北市大安區敦化南路２段６３巷５８號,9,3801023079,25.0307741,121.551742,OK
1428,台北市大安區仁愛路４段１５１巷１９號２樓,9,3801023088,25.0391592,121.5519069,OK
1429,台北市大安區光復南路３４６巷５４號,9,3801023113,25.0385214,121.5558398,OK
1430,台北市大安區忠孝東路４段２１６巷４６號３樓,9,3801023168,25.0391076,121.5528164,OK
1431,台北市大安區大安路１段２４３號,9,3801023177,25.03396,121.5461615,OK
1432,台北市大安區基隆路２段１４８號,9,3801023202,25.0279231,121.5564113,OK
1433,台北市大安區信義路２段４４巷１０－２號,9,3801023266,25.033773,121.525627,OK
1434,台北市大安區延吉街１１８號,9,3801023293,25.04049,121.554472,OK
1435,台北市大安區和平東路３段２２號,9,3801023355,25.0245458,121.547394,OK
1436,台北市大安區忠孝東路４段６０號３樓－３,9,3801023373,25.041394,121.545296,OK
1437,台北市大安區辛亥路２段１７１巷１５號,9,3801023382,25.0223465,121.5412069,OK
1438,台北市大安區潮州街８５號、金山南路２段１４８號２樓之１,9,3801023426,25.028889,121.526266,OK
1439,台北市大安區新生南路２段８０號８０之１號,9,3801023435,25.0273469,121.534507,OK
1440,台北市大安區忠孝東路四段２３１號１０樓之１,9,3801023444,25.0416661,121.5531714,OK
1441,台北市大安區和平東路３段４０６巷８號１樓之９、１樓之１０、,0,3801023471,,,ZERO_RESULTS
1442,台北市大安區忠孝東路４段５１之６號（７樓）,9,3801023480,25.041815,121.545357,OK
1443,台北市大安區忠孝東路四段３１１號２樓之４,9,3801023499,25.0416146,121.5557893,OK
1444,台北市大安區基隆路２段２１８號,9,3801023506,25.023527,121.551307,OK
1445,台北市大安區仁愛路４段５０之３號,9,3801023524,25.0376027,121.5473591,OK
1446,台北市大安區忠孝東路４段２３５號６樓,9,3801023542,25.041762,121.553756,OK
1447,台北市大安區復興南路２段１１０號５樓,9,3801023551,25.0294939,121.5433001,OK
1448,台北市大安區泰順街４４巷１３號,9,3801023560,25.023855,121.530689,OK
1449,台北市大安區忠孝東路４段２２０號４樓、２２２號４樓,9,3801023588,25.041149,121.553232,OK
1450,台北市大安區復興南路１段１３５巷７號２樓,9,3801023597,25.0427784,121.5447469,OK
1451,台北市大安區信義路３段１７８號６樓,9,3801023604,25.0332168,121.5422322,OK
1452,台北市大安區信義路４段１３７號４樓,9,3801023613,25.0334389,121.5494714,OK
1453,台北市大安區羅斯福路２段８１巷３號,9,3801023622,25.0258945,121.5238973,OK
1454,台北市大安區羅斯福路２段１０１巷２之１號,9,3801023640,25.0247387,121.5247969,OK
1455,台北市大安區忠孝東路３段２１７巷２弄７號,9,3801023659,25.0424039,121.540169,OK
1456,臺北市大安區光復南路５７８號２樓,9,3801023668,25.0338035,121.5572369,OK
1457,台北市大安區信義路４段２６５巷１０弄２－１號,9,3801023686,25.0337679,121.5538725,OK
1458,臺北市大安區忠孝東路四段１５號３樓之１,9,3801023695,25.0416986,121.5444446,OK
1459,臺北市大安區和平東路三段２２８巷７號,9,3801023702,25.0219401,121.5544935,OK
1460,臺北市大安區新生南路１段９７巷２９號,9,3801023711,25.0412653,121.5363487,OK
1461,臺北市大安區大安路１段２１５號１層、２層,9,3801023720,25.034836,121.546236,OK
1462,台北市大安區羅斯福路２段８１巷３號,9,3801023739,25.0258945,121.5238973,OK
1463,臺北市大安區大安路１段２２０巷１１號,9,3801023766,25.0343479,121.5455696,OK
1464,台北市大安區信義路４段１８１之２號、１８３號,9,3801023775,25.0334678,121.5507698,OK
1465,台北市大安區和平東路２段１１１號,9,3801023784,25.0254748,121.5405074,OK
1466,台北市大安區忠孝東路四段２２３巷３８號２樓,9,3801023793,25.0431597,121.5530811,OK
1467,台北市大安區信義路４段１８１之２號、１８３號,9,3801023819,25.0334678,121.5507698,OK
1468,台北市大同區重慶北路２段１０２號,9,3801090098,25.057256,121.513575,OK
1469,台北市大同區蘭州街５９號,9,3801090187,25.0636635,121.5150852,OK
1470,台北市大同區民權西路１４７號２－４樓、１４９號１－４樓,9,3801090267,25.0631351,121.5165751,OK
1471,台北市大同區哈密街５９巷５６弄５１號,9,3801090310,25.0755384,121.5144504,OK
1472,台北市大同區民生西路３１８號,9,3801090356,25.0568466,121.5118663,OK
1473,台北市大同區延平北路３段８２號及昌吉街２１４號,9,3801090392,25.0657097,121.5109364,OK
1474,台北市大同區哈密街９９號,9,3801090463,25.0730236,121.514382,OK
1475,台北市大同區民生西路１５４號,9,3801090801,25.0572663,121.5184673,OK
1476,台北市大同區重慶北路３段３２號１、２樓,9,3801091040,25.0651326,121.5134264,OK
1477,台北市大同區重慶北路２段１８４號,9,3801091344,25.062124,121.5133565,OK
1478,台北市大同區民生西路７８號５樓,9,3801092467,25.057476,121.5203248,OK
1479,台北市大同區民生西路７１號,9,3801092645,25.0576694,121.5199287,OK
1480,台北市大同區延平北路２段１８４號,9,3801092681,25.058615,121.511371,OK
1481,台北市大同區萬全街６４－１號１樓,9,3801092761,25.0584606,121.519343,OK
1482,台北市大同區昌吉街７９號１樓,9,3801092976,25.0659975,121.5142841,OK
1483,台北市大同區延平北路二段１４號,9,3801092994,25.054287,121.511619,OK
1484,台北市大同區重慶北路２段１０６號,9,3801093008,25.057405,121.513569,OK
1485,台北市大同區重慶北路３段９８號(實際營業地址１樓及地下１樓),9,3801093124,25.066659,121.5134464,OK
1486,台北市大同區錦西街３８巷３４號,9,3801093151,25.059233,121.520355,OK
1487,台北市大同區萬全街２６號,9,3801093179,25.0583511,121.5204807,OK
1488,台北市大同區延平北路２段８８－１號,9,3801093197,25.0562041,121.5114614,OK
1489,台北市大同區民族西路４２－１號,9,3801093222,25.0683912,121.5192908,OK
1490,台北市大同區華陰街６３號,9,3801093231,25.0496573,121.5184735,OK
1491,台北市大同區錦西街５０之１號,9,3801093295,25.0602168,121.519955,OK
1492,台北市大同區承德路１段６４號,9,3801093302,25.052071,121.517142,OK
1493,台北市大同區南京西路２２號３樓之１、之２,9,3801093348,25.0526678,121.5200055,OK
1494,台北市大同區民生西路７１號,9,3801093400,25.0576694,121.5199287,OK
1495,台北市大同區南京西路２２號３樓,9,3801093419,25.0525835,121.5199823,OK
1496,台北市大同區民生西路７１號,9,3801093428,25.0576694,121.5199287,OK
1497,台北市中山區遼寧街３５號,9,3801100017,25.0480939,121.54211,OK
1498,台北市中山區長春路１２６號,9,3801100035,25.0547491,121.530583,OK
1499,台北市中山區錦州街１７１號,9,3801100053,25.0604648,121.5306506,OK
1500,台北市中山區林森北路４８２、４８４、４８６號,9,3801100080,25.0613082,121.5254387,OK
1501,台北市中山區合江街１２８號,9,3801100160,25.059394,121.539146,OK
1502,台北市中山區民權東路２段７１巷４３號,9,3801100231,25.0642455,121.5317782,OK
1503,台北市中山區伊通街５２巷３號１樓,9,3801100393,25.0514227,121.5344726,OK
1504,台北市中山區長安東路１段５２巷４號,9,3801100526,25.0480322,121.5278518,OK
1505,台北市中山區龍江路２８１巷１號２樓,9,3801100679,25.0599054,121.5409799,OK
1506,台北市中山區中原街５０號,9,3801100688,25.0584159,121.5287453,OK
1507,台北市中山區復興北路３５０號２樓－１,9,3801100713,25.060025,121.543937,OK
1508,台北市中山區復興北路５１４巷６３號,9,3801100722,25.0661016,121.5415086,OK
1509,台北市中山區錦州街３３６號１樓,9,3801100848,25.0601771,121.5387942,OK
1510,台北市中山區新生北路１段５９－１號,9,3801100866,25.0488513,121.5294607,OK
1511,台北市中山區民權東路１段６３號５樓,9,3801100884,25.0628016,121.5254591,OK
1512,台北市中山區南京東路２段１００號２樓,9,3801100946,25.0518004,121.5319889,OK
1513,台北市中山區錦州街３３２號,9,3801101112,25.0601722,121.5386535,OK
1514,台北市中山區龍江路３３１巷３號,9,3801101201,25.0630056,121.5412431,OK
1515,台北市中山區復興北路７０號４樓－１,9,3801101210,25.0507033,121.5438842,OK
1516,台北市中山區民權東路３段５３號,9,3801101274,25.0625561,121.5429733,OK
1517,台北市中山區北安路５９８－１號,9,3801101283,25.081739,121.548867,OK
1518,台北市中山區松江路３７８號１樓３８０號２樓,9,3801101345,25.0633215,121.5329534,OK
1519,台北市中山區長安東路２段４７號１、２樓,9,3801101354,25.0486037,121.531992,OK
1520,台北市中山區吉林路２２３號,9,3801101381,25.0607099,121.5303325,OK
1521,台北市中山區長春路２６７號１樓,9,3801101416,25.0548069,121.5411707,OK
1522,台北市中山區興安街５１號之６號,9,3801101443,25.056318,121.54112,OK
1523,台北市中山區撫順街３７號,9,3801101498,25.063463,121.5196212,OK
1524,台北市中山區興安街９１號,9,3801101505,25.056218,121.5432188,OK
1525,台北市中山區北安路５４８號,9,3801101514,25.080134,121.54803,OK
1526,台北市中山區北安路８３５號,9,3801101925,25.084694,121.556991,OK
1527,台北市中山區民權東路２段８６號（實際開業樓層︰１樓）,9,3801101943,25.0623866,121.5314657,OK
1528,台北市中山區南京東路２段９５號２樓,9,3801101961,25.0521967,121.5321835,OK
1529,台北市中山區中山北路２段９８號（實際開業樓層：２、３樓）,9,3801102002,25.0598613,121.5227565,OK
1530,台北市中山區吉林路２４５號１、２樓,9,3801102075,25.0613148,121.530404,OK
1531,台北市中山區長安西路１８號,9,3801102128,25.049897,121.5209329,OK
1532,台北市中山區南京東路３段２００號３樓之２,9,3801102137,25.0516787,121.5430588,OK
1533,台北市中山區松江路３３０巷１５號,9,3801102146,25.0612861,121.5321561,OK
1534,台北市中山區龍江路２９號,9,3801102155,25.0484468,121.5404406,OK
1535,台北市中山區中山北路二段１５０號５樓,9,3801102164,25.0624977,121.522502,OK
1536,台北市中山區吉林路２３號１－２樓,9,3801102173,25.0506529,121.530171,OK
1537,台北市中山區長春路１０５號,9,3801102182,25.0549768,121.5294354,OK
1538,台北市中山區北安路５７５號,9,3801102191,25.081392,121.548483,OK
1539,台北市中山區錦州街４３２號,9,3801102217,25.0600377,121.5426421,OK
1540,台北市中山區松江路１３２巷９號,9,3801102235,25.0530504,121.5318861,OK
1541,台北市中山區松江路１３９號６樓,9,3801102253,25.0551209,121.5332751,OK
1542,台北市中山區復興北路７０號３樓之１,9,3801102262,25.0507033,121.5438842,OK
1543,台北市中山區南京西路１之１號３樓,9,3801102280,25.0525607,121.5218506,OK
1544,台北市中山區樂群二路１９６號,9,3801102299,25.079672,121.558712,OK
1545,台北市中山區中山北路３段５５巷７號（實際營業地址一層）,9,3801102306,25.0681141,121.5238584,OK
1546,台北市中山區一江街３１之１號,9,3801102315,25.0534174,121.53166,OK
1547,台北市中山區興安街５１之６號,9,3801102324,25.056297,121.541345,OK
1548,台北市中山區錦州街２７５號（實際營業地址一樓及地下一層）,9,3801102333,25.0604466,121.5354921,OK
1549,台北市中山區林森北路１０１號２樓,9,3801102342,25.0501796,121.5250228,OK
1550,台北市中山區松江路１３９號６樓,9,3801102351,25.0551209,121.5332751,OK
1551,台北市中山區松江路２７７號２樓,9,3801102360,25.0600798,121.5334604,OK
1552,台北市中山區林森北路１０１號２樓,9,3801102379,25.0501796,121.5250228,OK
1553,台北市中山區興安街６３號２樓之１０,9,3801102388,25.0562024,121.5425598,OK
1554,台北市內湖區內湖路２段３５３號１樓,9,3801110086,25.0834325,121.592004,OK
1555,台北市內湖區港墘路２３號,9,3801110102,25.0826793,121.5784035,OK
1556,台北市內湖區成功路５段２０號,9,3801110200,25.084718,121.601404,OK
1557,台北市內湖區港墘路６３號１樓,9,3801110246,25.0812322,121.5783437,OK
1558,台北市內湖區成功路３段１７４巷１號１樓３樓,9,3801110288,25.0809244,121.5907117,OK
1559,台北市內湖區文德路２１０巷３０弄２３號,9,3801111403,25.0770827,121.5846265,OK
1560,台北市內湖區港墘路１０４號,9,3801111458,25.0802234,121.5772215,OK
1561,台北市內湖區江南街１５號,9,3801111501,25.0783435,121.5786826,OK
1562,台北市內湖區東湖路４３巷３１號１樓,9,3801111510,25.0702579,121.6130969,OK
1563,台北市內湖區內湖路２段４８８號２樓,9,3801111609,25.0843945,121.5933943,OK
1564,台北市內湖區成功路３段１７４巷１６號,9,3801111654,25.081329,121.59036,OK
1565,台北市內湖區康寧路３段１６巷１１３號,9,3801111663,25.071108,121.609476,OK
1566,台北市內湖區文德路２２巷９弄４２號１樓,9,3801111672,25.0769146,121.5791099,OK
1567,台北市內湖區成功路４段５８號２樓,9,3801111681,25.0824974,121.5924256,OK
1568,台北市內湖區康樂街７９號１樓,9,3801111690,25.069201,121.6187135,OK
1569,台北市內湖區康樂街８６號,9,3801111716,25.070401,121.6188786,OK
1570,台北市內湖區五分街９３號,9,3801111725,25.0673451,121.6159318,OK
1571,台北市內湖區東湖路５７號、５９號,9,3801111798,25.0688279,121.6146193,OK
1572,台北市內湖區東湖路１２０號２樓,9,3801111841,25.0681157,121.6161773,OK
1573,台北市內湖區金湖路３８６號,9,3801111850,25.0736882,121.6049835,OK
1574,台北市內湖區港墘路１０５號,9,3801111869,25.0800929,121.5776203,OK
1575,台北市內湖區成功路４段３６６號,9,3801111896,25.0848386,121.6004134,OK
1576,台北市內湖區成功路４段３３８號,9,3801111903,25.0849136,121.5993934,OK
1577,台北市內湖區江南街１８號,9,3801111921,25.0778982,121.5779547,OK
1578,台北市內湖區金龍路４１號,9,3801111930,25.0849256,121.5939374,OK
1579,台北市南港區重陽路４號,9,3801120028,25.0549634,121.5955385,OK
1580,台北市南港區同德路６４號１樓,9,3801121169,25.0455731,121.5850355,OK
1581,台北市南港區同德路３０號１樓,9,3801121203,25.0451054,121.5841603,OK
1582,台北市南港區研究院路２段７０巷３３號１樓,9,3801121212,25.0457014,121.6141001,OK
1583,台北市南港區南港路２段１３８號１樓,9,3801121221,25.0535742,121.6010288,OK
1584,台北市南港區研究院路１段２７號,9,3801121230,25.053813,121.6166,OK
1585,臺北市南港區舊莊街１段６０號,9,3801121249,25.0410018,121.618507,OK
1586,台北市南港區成福路１７１巷１３號,9,3801121258,25.0414797,121.58865,OK
1587,台北市南港區八德路４段７８６－１號,9,3801121267,25.0504982,121.5804591,OK
1588,台北市南港區研究院路１段１５號,9,3801121276,25.054117,121.616648,OK
1589,台北市士林區延平北路７段８２號,9,3801150044,25.0965679,121.495384,OK
1590,台北市士林區前街１７號,9,3801150179,25.0975422,121.5251072,OK
1591,台北市士林區文林路４７８號１樓,9,3801150188,25.096062,121.5244682,OK
1592,台北市士林區華榮街４０號,9,3801150222,25.0959972,121.5235173,OK
1593,台北市士林區福港街２７２巷１號,9,3801150268,25.0833429,121.5175835,OK
1594,台北市士林區中正路６１５號,9,3801150286,25.086374,121.5090335,OK
1595,台北市士林區士商路７８號,9,3801150339,25.0911171,121.5196023,OK
1596,台北市士林區大東路１７６號,9,3801150348,25.093077,121.5252925,OK
1597,台北市士林區德行東路１０９巷９１號,9,3801150384,25.110648,121.5285529,OK
1598,台北市士林區士東路５０號,9,3801150393,25.1118712,121.527927,OK
1599,台北市士林區德行西路１２１號,9,3801150446,25.1038982,121.520463,OK
1600,台北市士林區忠誠路２段５０巷４號１樓,9,3801150455,25.1108626,121.5301895,OK
1601,台北市士林區小北街１１號１樓,9,3801150491,25.0903466,121.5263733,OK
1602,台北市士林區華齡街７２號１樓,9,3801150508,25.08448,121.519471,OK
1603,台北市士林區中山北路６段３００號１樓,9,3801151612,25.1105798,121.5257469,OK
1604,台北市士林區福國路９８－５號１樓,9,3801151649,25.1019658,121.5217953,OK
1605,台北市士林區天母北路１８號１樓,9,3801151667,25.1197529,121.5262529,OK
1606,台北市士林區忠誠路２段７６巷８號,9,3801151694,25.1119124,121.5303304,OK
1607,台北市士林區士東路４５號１樓,9,3801151818,25.1120285,121.5275047,OK
1608,台北市士林區中山北路７段１９０巷１號１樓,9,3801151827,25.1251025,121.5331661,OK
1609,台北市士林區小北街７號,9,3801151836,25.0903039,121.5264982,OK
1610,台北市士林區中山北路５段６９９巷２號,9,3801151845,25.0978745,121.5269724,OK
1611,台北市士林區德行東路２１５號,9,3801151890,25.1093114,121.532627,OK
1612,台北市士林區延平北路５段１７２號,9,3801151916,25.0829546,121.5103458,OK
1613,台北市士林區天母東路４７－１號,9,3801151952,25.1182153,121.5327334,OK
1614,台北市士林區德行東路１８７－１號,9,3801152002,25.1089461,121.5315525,OK
1615,台北市士林區天母東路８巷３８號,9,3801152075,25.1164654,121.531358,OK
1616,台北市士林區文林路５２７號,9,3801152093,25.097126,121.5239377,OK
1617,台北市士林區文林路５１９號,9,3801152100,25.0969638,121.5239711,OK
1618,台北市士林區德行東路９０巷３號,9,3801152155,25.1072115,121.5279754,OK
1619,台北市士林區中山北路７段３９號,9,3801152182,25.1196254,121.5306305,OK
1620,台北市士林區文林路４１０號１、２樓,9,3801152235,25.0940498,121.5250071,OK
1621,台北市士林區社子街４２號,9,3801152244,25.0874408,121.5074696,OK
1622,台北市士林區華齡街５７號,9,3801152253,25.084497,121.519303,OK
1623,台北市士林區福華路１２８巷１０號,9,3801152299,25.1029169,121.5231431,OK
1624,台北市士林區承德路４段１８１號,9,3801152315,25.0876583,121.5227044,OK
1625,臺北市士林區前港街１０８號,9,3801152333,25.0850885,121.5185005,OK
1626,臺北市士林區延平北路五段２４３號,9,3801152342,25.0845722,121.5096923,OK
1627,台北市士林區天母北路３７號,9,3801152351,25.120411,121.5266263,OK
1628,台北市士林區大南路２８８號,9,3801152360,25.0888202,121.5192313,OK
1629,台北市士林區中正路２０３號２樓,9,3801152379,25.0953986,121.5268343,OK
1630,台北市士林區德行西路１０２號,9,3801152388,25.104043,121.521127,OK
1631,台北市士林區基河路２３８號,9,3801152397,25.090816,121.521624,OK
1632,台北市士林區中正路６１５號,9,3801152404,25.086374,121.5090335,OK
1633,台北市士林區中正路２０３號（２樓）,9,3801152413,25.0953986,121.5268343,OK
1634,台北市士林區中正路４０７號,9,3801152422,25.0938028,121.5208984,OK
1635,台北市士林區福華路１２８巷１０號,9,3801152431,25.1029169,121.5231431,OK
1636,台北市北投區尊賢街２４１巷１號,0,3801160059,,,OVER_QUERY_LIMIT
1637,台北市北投區中央南路１段１７９號,0,3801160077,,,OVER_QUERY_LIMIT
1638,台北市北投區石牌路１段８５號,0,3801160102,,,OVER_QUERY_LIMIT
1639,台北市北投區實踐街３２號,0,3801160166,,,OVER_QUERY_LIMIT
1640,台北市北投區中央北路１段３８號１．２樓,9,3801160184,25.1340121,121.5008559,OK
1641,台北市北投區中央南路２段７５號,9,3801160273,25.12279,121.5002158,OK
1642,台北市北投區西安街１段３６９號２樓,9,3801160317,25.114609,121.5151217,OK
1643,台北市北投區裕民一路４０巷２５號,9,3801161458,25.1155723,121.5178192,OK
1644,台北市北投區東華街１段４６號,9,3801161467,25.1085527,121.5200508,OK
1645,台北市北投區自強街１０８號,9,3801161476,25.1107226,121.5153278,OK
1646,台北市北投區中和街２２８號,9,3801161510,25.139218,121.501698,OK
1647,台北市北投區石牌路２段６８巷２０號,9,3801161547,25.1162409,121.5167621,OK
1648,台北市北投區石牌路２段９０巷１８號,9,3801161556,25.1170217,121.5170689,OK
1649,台北市北投區明德路３１號,9,3801161565,25.1073492,121.5176863,OK
1650,台北市北投區西安街２段３３５號,9,3801161583,25.1207553,121.5053811,OK
1651,台北市北投區明德路１５７號,9,3801161654,25.111092,121.520789,OK
1652,台北市北投區中央南路１段１２５號,9,3801161663,25.1302338,121.5012006,OK
1653,台北市北投區中央北路１段２０１號１樓,9,3801161672,25.135884,121.497339,OK
1654,台北市北投區中央南路１段１３２號,9,3801161681,25.130089,121.50098,OK
1655,台北市北投區自強街１５０號,9,3801161716,25.1109524,121.5164323,OK
1656,台北市北投區石牌路１段１０１號１、２樓,9,3801161734,25.1140528,121.5119159,OK
1657,台北市北投區懷德街３之７號,9,3801161789,25.1106451,121.5195834,OK
1658,台北市北投區光明路１６６號(１、２樓)、１６６－１號,9,3801161832,25.1349799,121.5026479,OK
1659,台北市北投區石牌路１段６５號（１．２層）,9,3801161841,25.1135019,121.5109444,OK
1660,台北市北投區尊賢街２４９巷２號１層,9,3801161850,25.1177033,121.506713,OK
1661,台北市北投區石牌路１段１６６巷１１６號,9,3801161878,25.1118204,121.5153465,OK
1662,台北市北投區西安街１段１７３號,9,3801161887,25.1097848,121.518438,OK
1663,台北市北投區光明路２巷９之５號、９之５號２樓,9,3801161896,25.1315482,121.4993615,OK
1664,台北市北投區三合街２段４４６號,9,3801161903,25.126838,121.502338,OK
1665,台北市北投區光明路１６６號（１、２層）,9,3801161912,25.1349799,121.5026479,OK
1666,台北市北投區西安街１段１５７號,9,3801161921,25.1093712,121.518711,OK
1667,台北市信義區林口街２４巷８號,9,3801170064,25.0373724,121.5796927,OK
1668,台北市信義區松山路２４４號,9,3801170082,25.0440659,121.577567,OK
1669,台北市信義區松信路７７號,9,3801170162,25.0462012,121.5722745,OK
1670,台北市信義區虎林街１０５號,9,3801170171,25.0426103,121.5770124,OK
1671,台北市信義區松山路４６５巷８號,9,3801170279,25.039507,121.578661,OK
1672,台北市信義區永吉路３０巷１０號,9,3801170322,25.045217,121.568675,OK
1673,台北市信義區永吉路３２６巷５－１號,9,3801170368,25.0449879,121.575625,OK
1674,台北市信義區福德街７０號１樓,9,3801170500,25.0370709,121.58088,OK
1675,台北市信義區莊敬路３２５巷４號１樓,9,3801170555,25.028179,121.563963,OK
1676,台北市信義區松山路５７６號,9,3801170644,25.037003,121.578208,OK
1677,台北市信義區和平東路３段３６１號,9,3801170680,25.0203424,121.5570866,OK
1678,台北市信義區松山路４１１號１樓　,9,3801170706,25.0412935,121.578028,OK
1679,台北市信義區松山路３３５號,9,3801170724,25.041858,121.57805,OK
1680,台北市信義區基隆路２段１４９－１６號１樓,9,3801170733,25.0267335,121.5554592,OK
1681,台北市信義區莊敬路２２６號１樓,9,3801171829,25.0298174,121.5618754,OK
1682,台北市信義區莊敬路４３２號,9,3801171918,25.0269859,121.56679,OK
1683,台北市信義區忠孝東路５段４７２號５樓,9,3801171927,25.040696,121.577029,OK
1684,台北市信義區富陽街５０號,9,3801171945,25.0223229,121.556293,OK
1685,台北市信義區永吉路１８８號,9,3801171954,25.045414,121.572345,OK
1686,台北市信義區松山路２４３號、２４５號,9,3801172059,25.044406,121.5779968,OK
1687,台北市信義區永吉路２００巷５６弄２號１樓,9,3801172095,25.043334,121.572514,OK
1688,台北市信義區逸仙路２６巷５號１樓,9,3801172120,25.0395684,121.5620247,OK
1689,台北市信義區松山路４８６號,9,3801172148,25.03864,121.577876,OK
1690,台北市信義區永吉路４９２號,9,3801172193,25.045167,121.579374,OK
1691,台北市信義區忠孝東路５段１９７號,9,3801172237,25.041216,121.569568,OK
1692,台北市信義區莊敬路４０３號,9,3801172335,25.027506,121.566051,OK
1693,台北市信義區莊敬路２７８號,9,3801172344,25.0287798,121.562707,OK
