,address,confidence,hid,lat,lng,status
0,彰化縣北斗鎮居仁里斗苑路１段１５號,9,3537041234,23.8724011,120.5280677,OK
1,彰化縣北斗鎮七星里斗苑路１段３５號,9,3537041243,23.8723443,120.5275662,OK
2,彰化縣北斗鎮新政里中華路２４５號,9,3537041252,23.872873,120.522561,OK
3,彰化縣北斗鎮西安里中山路一段３３３號,9,3537041270,23.8724851,120.515845,OK
4,彰化縣北斗鎮新政里中正路１４０號１、２樓,9,3537041289,23.873531,120.522157,OK
5,彰化縣北斗鎮中山路二段38、38之1號；38之2、38之3號2、3樓,9,3537041305,23.8740353,120.5180805,OK
6,彰化縣北斗鎮中華路２４５號,9,3537041323,23.872873,120.522561,OK
7,彰化縣北斗鎮居仁里中華路１０３號,9,3537041332,23.8730867,120.5255086,OK
8,彰化縣北斗鎮新政里中正路１５３號,9,3537041350,23.8739224,120.5218822,OK
9,彰化縣北斗鎮新政里中華路２２６號,9,3537041369,23.873369,120.52297,OK
10,彰化縣北斗鎮西安里中山路１段３３３號,9,3537041387,23.8724851,120.515845,OK
11,彰化縣員林市中山里三民街７２號,9,3537050037,23.958359,120.571092,OK
12,彰化縣員林市民生里中正路２９０號,9,3537050055,23.9552079,120.574135,OK
13,彰化縣員林鎮光明里中正路４２５號,9,3537050073,23.957798,120.572429,OK
14,彰化縣員林市中山里中山路一段８２０號,9,3537050126,23.9585869,120.571084,OK
15,彰化縣員林市仁美里中正路６６４號,9,3537050153,23.963057,120.571478,OK
16,彰化縣員林市黎明里中正路１６５號,9,3537050171,23.9529761,120.5751627,OK
17,彰化縣員林市中山里中山路一段８３８號,9,3537050199,23.9590699,120.571053,OK
18,彰化縣員林市中正里三民街４０－３號,9,3537050260,23.9590359,120.576046,OK
19,彰化縣員林市惠來里南昌路５９號,9,3537050322,23.9543109,120.571852,OK
20,彰化縣員林市中山里中山路一段７７４號,9,3537050340,23.9575929,120.571125,OK
21,彰化縣員林市惠來里惠來街１０９號,9,3537050359,23.9549979,120.569312,OK
22,彰化縣員林市新興里萬年路三段１９７號,9,3537050377,23.9606309,120.573637,OK
23,彰化縣員林市萬年里員水路二段４３９號,9,3537050402,23.9556648,120.5787482,OK
24,彰化縣員林市仁美里中山路二段１１４號,9,3537050457,23.963653,120.571359,OK
25,彰化縣員林市新興里中正路５７８號,9,3537050475,23.9612319,120.571568,OK
26,彰化縣員林市中山里中山路一段８３０號,9,3537050493,23.9588249,120.57111,OK
27,彰化縣員林市和平里靜修路４５號,9,3537050500,23.9620939,120.570291,OK
28,彰化縣員林市仁美里靜修東路３６號１樓,9,3537050519,23.9626039,120.575524,OK
29,彰化縣員林市中山里中山路一段８２４號,9,3537050537,23.958692,120.571067,OK
30,彰化縣員林市民生里中正路２２６號,9,3537050546,23.9542117,120.574708,OK
31,彰化縣員林市和平里民權街４４號,9,3537050555,23.959566,120.570398,OK
32,彰化縣員林市中山里中山路一段８０８號,9,3537050564,23.9583339,120.570955,OK
33,彰化縣員林市和平里中正路５１１號,9,3537050573,23.959696,120.571708,OK
34,彰化縣員林市新興里育英路７８之２號,9,3537050582,23.9606106,120.5746507,OK
35,彰化縣員林市仁美里中正路６２８號,9,3537050608,23.96215,120.571483,OK
36,彰化縣員林市中山里三民街６４號,9,3537050617,23.958355,120.5713339,OK
37,彰化縣員林市黎明里中正路２３５號,9,3537050626,23.9542549,120.574287,OK
38,彰化縣員林市中正路４９１號,9,3537050662,23.9590729,120.571907,OK
39,彰化縣員林市黎明里中正路３２５號,9,3537050699,23.956211,120.5734244,OK
40,彰化縣員林市惠來里南昌路９４號,9,3537050706,23.954811,120.571855,OK
41,彰化縣員林市振興里員水路一段１９０號,9,3537050733,23.9499329,120.6004199,OK
42,彰化縣員林市三義里莒光路５２號及５４號,4,3537050742,23.959574,120.5854674,OK
43,彰化縣員林市東和里萬年路２段７９號,9,3537050751,23.9560654,120.5761319,OK
44,彰化縣員林市東和里員水路二段５７８號,9,3537050760,23.9565804,120.5758488,OK
45,彰化縣員林市三橋里永安街１１５號,9,3537050779,23.969366,120.576209,OK
46,彰化縣員林市中正里三民東街４５號,9,3537050788,23.9592752,120.5763505,OK
47,彰化縣員林市仁美里靜修東路２３號,9,3537050797,23.9631637,120.5749901,OK
48,彰化縣員林市民生里南昌東路３９號,9,3537050813,23.9556731,120.5753479,OK
49,彰化縣員林市中正里中正路３９２巷１５號,9,3537050831,23.9573492,120.573414,OK
50,彰化縣員林市仁美里育英路９６２號,4,3537050840,23.959574,120.5854674,OK
51,彰化縣員林市三條里三民東街２８２號,9,3537050859,23.9600549,120.580847,OK
52,彰化縣員林市惠來里光明街１６３號,9,3537050886,23.9542679,120.572301,OK
53,彰化縣員林市黎明里民生路１３３號,9,3537050902,23.9564235,120.5729304,OK
54,彰化縣員林市南平里新生路３６６，３６８號,9,3537050920,23.9641993,120.5687565,OK
55,彰化縣員林市育英路８８號１樓及８９號１樓,4,3537050975,23.959574,120.5854674,OK
56,彰化縣員林市惠來里中山南路10號,9,3537050984,23.955924,120.570757,OK
57,彰化縣員林市惠來里中山南路７２號,9,3537051016,23.954353,120.570869,OK
58,彰化縣員林市新興里育英路９６４號,4,3537051043,23.959574,120.5854674,OK
59,彰化縣員林市三和里大同路一段２８５巷１５、１７號,9,3537051098,23.9616799,120.5793342,OK
60,彰化縣員林市中正里林森路２５０號,9,3537051114,23.9590756,120.5774935,OK
61,彰化縣員林市中正里育英路３７１２號,4,3537052120,23.959574,120.5854674,OK
62,彰化縣員林市中正里博愛路１５０號,9,3537052139,23.959899,120.573044,OK
63,彰化縣員林市惠來里南昌路９０號,9,3537052166,23.9548169,120.57195,OK
64,彰化縣員林市惠來里南昌路１２８號１～２樓,9,3537052175,23.954526,120.570744,OK
65,彰化縣員林市仁美里靜修東路９１號,9,3537052193,23.963436,120.5763,OK
66,彰化縣員林市和平里靜修路４２２號,4,3537052228,23.959574,120.5854674,OK
67,彰化縣員林市仁美里靜修路１之７號,9,3537052237,23.9628099,120.57391,OK
68,彰化縣員林市中山里中山路１段７２５號,9,3537052246,23.956576,120.570696,OK
69,彰化縣員林市黎明里中正路１１３號,9,3537052255,23.951835,120.5755227,OK
70,彰化縣員林市中正里林森路２７６號,9,3537052264,23.959807,120.5773471,OK
71,彰化縣員林市三和里大同路１段２８５巷５０號,9,3537052273,23.9616337,120.5783503,OK
72,彰化縣員林市三條里大同路１段１９５，１９７號,9,3537052282,23.959711,120.5803799,OK
73,彰化縣員林市仁美里浮圳路２段３７０號,9,3537052308,23.9663984,120.5779551,OK
74,彰化縣員林市三條里三民東街１６８號,9,3537052326,23.9596522,120.578419,OK
75,彰化縣員林市中正里博愛路１０３號,9,3537052335,23.9587989,120.57311,OK
76,彰化縣員林市東和里員水路二段４８２號,9,3537052362,23.956169,120.577775,OK
77,彰化縣員林市南平里南平街２２之１號,9,3537052371,23.9629957,120.5646411,OK
78,彰化縣員林市三信里大同路２段３１３號１樓 ,9,3537052399,23.968931,120.572537,OK
79,彰化縣員林市新興里正興街３７０號 ,9,3537052415,23.960058,120.572291,OK
80,彰化縣員林市仁愛里三民東街２０６號,9,3537052424,23.9597973,120.5789477,OK
81,彰化縣員林市仁美里育英路１８０、１８２號,9,3537052433,23.9642529,120.574165,OK
82,彰化縣員林市靜修東路７８號,9,3537052451,23.963048,120.576339,OK
83,彰化縣員林市育英路８８號１樓及８９號１樓,4,3537052497,23.959574,120.5854674,OK
84,彰化縣員林市中正路２２６號,9,3537052504,23.9542117,120.574708,OK
85,彰化縣員林市靜修東路１０３號,9,3537052522,23.9634289,120.576599,OK
86,彰化縣員林市東和里林森路１３５號１樓,9,3537052540,23.9565736,120.5778468,OK
87,彰化縣員林市中正路５２７號,9,3537052568,23.9600319,120.57157,OK
88,彰化縣員林市靜修路４４號２樓、４４之１號２樓,9,3537052577,23.9623153,120.5705943,OK
89,彰化縣員林市惠來里光明街１６３號,9,3537052595,23.9542679,120.572301,OK
90,彰化縣員林市三義里莒光路６９號 ,9,3537052648,23.9529785,120.5663288,OK
91,彰化縣員林市仁美里靜修東路６０號１樓,9,3537052657,23.9629499,120.575945,OK
92,彰化縣員林市仁愛里員東路２段４１０號５樓、６樓,9,3537052675,23.9578326,120.5791644,OK
93,彰化縣員林市惠來里南昌路９８號,9,3537052693,23.954632,120.571798,OK
94,彰化縣員林市鎮興里員東路１段５５號,9,3537052700,23.9635409,120.5992827,OK
95,彰化縣員林市三和里大同路１段４３０號１樓,9,3537052728,23.9652246,120.5793084,OK
96,彰化縣員林市忠孝里員水路２段３５６號１樓及３５８號１樓,4,3537052737,23.959574,120.5854674,OK
97,彰化縣員林市三和里大同路１段４０２號２樓,9,3537052746,23.9646543,120.5793697,OK
98,彰化縣員林市三信里中山路２段２６３號,9,3537052755,23.9664429,120.571124,OK
99,彰化縣員林市惠來里光明街１６３號,9,3537052764,23.9542679,120.572301,OK
100,彰化縣員林市新興里正興街３７０號,9,3537052773,23.960058,120.572291,OK
101,彰化縣員林市新興里正興街３６８號１－２樓,9,3537052782,23.9599739,120.57234,OK
102,彰化縣員林市三信里中山路２段２６３號,9,3537052791,23.9664429,120.571124,OK
103,彰化縣員林市三義里莒光路６９號,9,3537052808,23.9529785,120.5663288,OK
104,彰化縣員林市忠孝里大同路１段１號１樓、２樓,9,3537052817,23.9554578,120.5816271,OK
105,彰化縣員林市仁美里浮圳路２段４０５號,9,3537052826,23.9656345,120.5769662,OK
106,彰化縣員林市忠孝里員水路２段３５６號１樓及３５８號１樓,4,3537052835,23.959574,120.5854674,OK
107,彰化縣員林市振興里山？路二段７４號１、２樓,9,3537052844,23.9456078,120.6006876,OK
108,彰化縣員林市三信里中山路二段２６３號,9,3537052853,23.9664429,120.571124,OK
109,彰化縣溪湖鎮平和里彰水路三段１９４號,9,3537060033,23.9576857,120.4802548,OK
110,彰化縣溪湖鎮大竹里彰水路三段１４８號,9,3537060051,23.9560556,120.4804525,OK
111,彰化縣溪湖鎮平和里彰水路３段２１２號,9,3537060113,23.9580806,120.4803495,OK
112,彰化縣溪湖鎮大竹里彰水路二段８４７號,9,3537060122,23.9529489,120.4802993,OK
113,彰化縣溪湖鎮平和里員鹿路三段５８巷５號,9,3537060159,23.959079,120.4809726,OK
114,彰化縣溪湖鎮光平里彰水路三段３７９號,9,3537060168,23.9617087,120.4799851,OK
115,彰化縣溪湖鎮湖西里二溪路一段２８７號,9,3537060177,23.9591723,120.4731629,OK
116,彰化縣溪湖鎮東寮里彰水路４段１５３號２樓．１５９號,9,3537060186,23.9692404,120.4798228,OK
117,彰化縣溪湖鎮大竹里西環路２７號,9,3537060202,23.9555939,120.481381,OK
118,彰化縣溪湖鎮東寮里育才街６７號,9,3537060239,23.9660486,120.4812382,OK
119,彰化縣溪湖鎮東寮里育才街７３號,9,3537060248,23.9660493,120.4811203,OK
120,彰化縣溪湖鎮湖東里興學街６７號,9,3537060275,23.9610936,120.4828041,OK
121,彰化縣溪湖鎮東寮里培英路４２號,9,3537060293,23.9677463,120.4818697,OK
122,彰化縣溪湖鎮平和里彰水路三段２０２號,9,3537060300,23.9578509,120.4803726,OK
123,彰化縣溪湖鎮光華里員鹿路三段１６９號,9,3537060319,23.9602144,120.4793709,OK
124,彰化縣溪湖鎮湖西里西環路２３１號,9,3537060328,23.9574142,120.4770359,OK
125,彰化縣溪湖鎮光華里太平街５６號,9,3537060337,23.9605301,120.47885,OK
126,彰化縣溪湖鎮湖西里二溪路一段１７８號,9,3537060346,23.9594626,120.4753163,OK
127,彰化縣溪湖鎮湖西里西環路２０１號,9,3537060382,23.9571599,120.477085,OK
128,彰化縣溪湖鎮湖西里西環路２４６號,9,3537060391,23.958181,120.4775123,OK
129,彰化縣溪湖鎮湖西里二溪路１段２３３號,9,3537061414,23.959236,120.474366,OK
130,彰化縣溪湖鎮光華里環中街１６２號,9,3537061423,23.9601338,120.4778207,OK
131,彰化縣溪湖鎮大竹里彰水路３段１７０，１７２號,9,3537061432,23.957092,120.4803741,OK
132,彰化縣溪湖鎮大竹里福德路２１，２３號,9,3537061441,23.9562216,120.4770228,OK
133,彰化縣溪湖鎮彰水路４段５７號１樓,9,3537061450,23.9671047,120.4798919,OK
134,彰化縣溪湖鎮彰水路４段５７號４、５樓,9,3537061469,23.9671047,120.4798919,OK
135,彰化縣溪湖鎮湖西里二溪路１段１５７號,9,3537061487,23.9592511,120.4759743,OK
136,彰化縣溪湖鎮光平里彰水路３段３６５、３６７號,9,3537061496,23.9616065,120.4798953,OK
137,彰化縣溪湖鎮彰水路３段４８８號,9,3537061503,23.9641053,120.4800559,OK
138,彰化縣溪湖鎮平和里員鹿路３段６９號及７１號 ,9,3537061521,23.9584735,120.4807908,OK
139,彰化縣溪湖鎮湖東里大溪路２段３５８號,9,3537061530,23.9646098,120.4827764,OK
140,彰化縣溪湖鎮光平里彰水路３段３１５、３１７號１樓,9,3537061558,23.9601576,120.4801435,OK
141,彰化縣溪湖鎮湖東里大溪路２段３５８號,9,3537061567,23.9646098,120.4827764,OK
142,彰化縣溪湖鎮光平里文東街９號４樓,9,3537061576,23.9621392,120.4810016,OK
143,彰化縣溪湖鎮光華里太平街２４號,9,3537061585,23.9599698,120.4788487,OK
144,彰化縣溪湖鎮光平里彰水路３段３１５、３１７號１樓,9,3537061594,23.9601576,120.4801435,OK
145,彰化縣溪湖鎮和平里員鹿路三段９７號及９９號,4,3537061601,23.9583265,120.4933624,OK
146,彰化縣溪湖鎮光平里文東街９號４樓,9,3537061610,23.9621392,120.4810016,OK
147,彰化縣田中鎮南路里員集路二段２９８號,9,3537070020,23.8578606,120.5857552,OK
148,彰化縣田中鎮東路里中州路一段１８０號,9,3537070057,23.8580288,120.5871038,OK
149,彰化縣田中鎮北路里新生街１２６號,9,3537070084,23.8617546,120.5866325,OK
150,彰化縣田中鎮西路里員集路二段４２５號,9,3537070093,23.8595857,120.5851408,OK
151,彰化縣田中鎮西路里中正路４１５號,9,3537070100,23.8607169,120.582756,OK
152,彰化縣田中鎮西路里員集路２段３８７號 ,9,3537070119,23.8586319,120.5855077,OK
153,彰化縣田中鎮中路里福安路７６號,9,3537070137,23.8599967,120.5896705,OK
154,彰化縣田中鎮西路里員集路２段５５７號,9,3537070173,23.8618163,120.5848896,OK
155,彰化縣田中鎮東路里南北街１９３號,9,3537070182,23.861641,120.5858415,OK
156,彰化縣田中鎮中路里中州路一段１４４號,9,3537071198,23.8581545,120.5881806,OK
157,彰化縣田中鎮東路里新福路５３巷１０號１樓,9,3537071205,23.8625957,120.586362,OK
158,彰化縣田中鎮南路里員集路２段３４２號,9,3537071214,23.8561609,120.5864608,OK
159,彰化縣田中鎮西路里中州路一段二四二、二四四號,9,3537071223,23.85773,120.5844706,OK
160,彰化縣田中鎮公館路２８３號２樓及２８５號１樓、２樓,9,3537071241,23.8539762,120.5852164,OK
161,彰化縣田中鎮福安路２５０號１、２、３、４樓,9,3537071250,23.8629319,120.5885447,OK
162,彰化縣二林鎮東和里中山路５２號,9,3537080044,23.9006066,120.3695006,OK
163,彰化縣二林鎮東和里大成路一段１４５號,9,3537080124,23.8989163,120.3724071,OK
164,彰化縣二林鎮東和里斗苑五段２１５號,9,3537080142,23.9009219,120.3678163,OK
165,彰化縣二林鎮東和里二溪路一段４０號,9,3537080197,23.9014381,120.3700981,OK
166,彰化縣二林鎮二溪路６段５４８號,9,3537080222,23.9550819,120.417533,OK
167,彰化縣二林鎮南光里大成路一段２４９號,9,3537080240,23.8977783,120.3697492,OK
168,彰化縣二林鎮南光里大成路一段２６２．２６４號,9,3537080259,23.8980064,120.3696259,OK
169,彰化縣二林鎮斗苑路四段７０２號,9,3537080268,23.899809,120.373132,OK
170,彰化縣二林鎮大成路一段１３５號,9,3537081283,23.8990228,120.3725264,OK
171,彰化縣二林鎮南光里大成路１段３０６號,9,3537081292,23.8976004,120.3684929,OK
172,彰化縣二林鎮豐田里斗苑路４段５９７．５９９號,9,3537081309,23.8995654,120.3751923,OK
173,彰化縣二林鎮東和里仁愛路６７６號１樓,9,3537081345,23.9020528,120.3644898,OK
174,彰化縣二林鎮南光里儒林路二段３１０號,9,3537081354,23.8973439,120.3693669,OK
175,彰化縣二林鎮後厝里斗苑路四段四○一號,7,3537081363,23.9026173,120.3925467,OK
176,彰化縣二林鎮二溪路一段２０號,9,3537081372,23.901274,120.369604,OK
177,彰化縣二林鎮東和里大成路１段１３５號,9,3537081381,23.8990388,120.3724973,OK
178,彰化縣二林鎮南光里儒林路２段２８８號,9,3537081416,23.896953,120.3694194,OK
179,彰化縣二林鎮大成路一段３０２號１樓夾層２樓、３樓及４樓,9,3537081434,23.8974367,120.3684944,OK
180,彰化縣二林鎮南光里大成路１段２５４號,9,3537081443,23.8980374,120.3697269,OK
181,彰化縣二林鎮東和里仁愛路４０２號,9,3537081452,23.9038911,120.370515,OK
182,彰化縣二林鎮東和里斗苑路５段１５４號１樓,9,3537081461,23.9006792,120.3694222,OK
183,彰化縣二林鎮南光里舊二路１１２號,9,3537081470,23.895098,120.3631096,OK
184,彰化縣線西鄉寓埔村沿海路一段７７２號,9,3537090022,24.132409,120.462596,OK
185,彰化縣線西鄉寓埔村中華路５４號１樓,9,3537090031,24.1342908,120.4622195,OK
186,彰化縣伸港鄉新港村中正路１８號,9,3537100041,24.1464859,120.484862,OK
187,彰化縣伸港鄉新港村新港路２３４號,9,3537100069,24.1474543,120.486691,OK
188,彰化縣伸港鄉新港村忠孝路９．１１號,9,3537100087,24.148474,120.486302,OK
189,彰化縣伸港鄉新港村中山東路１３０號,9,3537100096,24.1472896,120.4876433,OK
190,彰化縣伸港鄉新港村中山路１６號,9,3537100112,24.1470992,120.4864224,OK
191,彰化縣伸港鄉新港村新港路１６１號,9,3537101182,24.1456913,120.4873,OK
192,彰化縣伸港鄉新港村中正路２０巷６號及８號,9,3537101191,24.1467478,120.4848268,OK
193,彰化縣伸港鄉什股村建國一街１２３號,9,3537101208,24.160357,120.4823009,OK
194,彰化縣褔興鄉福興村沿海路五段２７７號１Ｆ,9,3537110010,24.0491817,120.430176,OK
195,彰化縣福興鄉三汴村彰水路３６８號,9,3537110056,24.0181404,120.4891101,OK
196,彰化縣福興鄉福興村沿海路五段２７－２９號１樓,9,3537111106,24.044509,120.427392,OK
197,彰化縣福興鄉廈粘村沿海路３段２０４號１樓,9,3537111115,24.0292422,120.4135639,OK
198,彰化縣福興鄉廈粘村沿海路３段２０４號１樓,9,3537111133,24.0292422,120.4135639,OK
199,彰化縣福興鄉廈粘村沿海路３段２０４號１樓,9,3537111142,24.0292422,120.4135639,OK
200,彰化縣秀水鄉安東村彰水路２段６８８號,9,3537120098,24.033186,120.499265,OK
201,彰化縣秀水鄉福安村彰水路二段６６１號,9,3537121111,24.0320119,120.497621,OK
202,彰化縣秀水鄉福安里彰水路２段４５２號,9,3537121139,24.029065,120.495791,OK
203,彰化縣秀水鄉中山路３５７號,9,3537121166,24.0345564,120.5004913,OK
204,彰化縣秀水鄉中山路３２８號４樓,9,3537121184,24.0349001,120.5012773,OK
205,彰化縣秀水鄉福安村彰水路２段３５８、３５８之１號,9,3537121193,24.0276794,120.4943519,OK
206,彰化縣秀水鄉福安村彰水路２段５１５.５１７號,9,3537121206,24.0294833,120.495576,OK
207,彰化縣秀水鄉安東村中山路３５７號,9,3537121219,24.0345564,120.5004913,OK
208,彰化縣秀水鄉埔崙村彰水路２段１９５號,9,3537121228,24.0238657,120.4915909,OK
209,彰化縣秀水鄉埔崙村彰水路２段１９５號,9,3537121237,24.0238657,120.4915909,OK
210,彰化縣秀水鄉福安村彰水路２段５１５、５１７號,9,3537121246,24.0294833,120.495576,OK
211,彰化縣秀水鄉安東村彰水路１段１１１號,9,3537121255,24.0370287,120.5018117,OK
212,彰化縣秀水鄉福安村彰水路２段４０５號,9,3537121264,24.0275172,120.4939695,OK
213,彰化縣花壇鄉花壇村中正路３４６號,9,3537130012,24.025504,120.538077,OK
214,彰化縣花壇鄉長沙村學前路２４０、２４２號,9,3537130101,24.0286154,120.540677,OK
215,彰化縣花壇鄉花壇村花壇街１８５號,9,3537130138,24.0242445,120.5380808,OK
216,彰化縣花壇鄉長沙村中正路２２０號,9,3537130147,24.026482,120.5414255,OK
217,彰化縣花壇鄉長沙村中山路２段２６號,9,3537130174,24.026229,120.539318,OK
218,彰化縣花壇鄉長沙村中正路１６６號,9,3537130192,24.0268569,120.542801,OK
219,彰化縣花壇鄉長沙村中正路１１８號,9,3537131215,24.027336,120.544152,OK
220,彰化縣花壇鄉花壇村中山路一段４０９號,9,3537131224,24.02456,120.540255,OK
221,彰化縣花壇鄉白沙村彰員路三段４０號,9,3537131233,24.0436508,120.5468388,OK
222,彰化縣花壇鄉花壇村花壇街２５３號,9,3537131242,24.025506,120.537425,OK
223,彰化縣花壇鄉長沙村中山路２段２８號,9,3537131288,24.0262805,120.5392753,OK
224,彰化縣花壇鄉長沙村忠孝街１００號１００－１號及１００－２號,9,3537131297,24.0288763,120.546645,OK
225,彰化縣花壇鄉長沙村忠孝街１００號１００－１號１００－２號,9,3537131304,24.0288763,120.546645,OK
226,彰化縣花壇鄉花壇村中山路１段４４９號、４５１號,9,3537131313,24.0249709,120.539409,OK
227,彰化縣花壇鄉長沙村忠孝街１００號及１００－１號及１００－２號,9,3537131322,24.0288763,120.546645,OK
228,彰化縣花壇鄉長沙村忠孝街１００號及１００－１號及１００－２號,9,3537131331,24.0288763,120.546645,OK
229,彰化縣花壇鄉長沙村忠孝街１００號及１００－１號及１００－２號,9,3537131340,24.0288763,120.546645,OK
230,彰化縣花壇鄉長沙村忠孝街１００號及１００－１號及１００－２號,9,3537131359,24.0288763,120.546645,OK
231,彰化縣花壇鄉長沙村中山路二段２８號,9,3537131368,24.0262805,120.5392753,OK
232,彰化縣芬園鄉社口村芬草路二段２８４巷１３號,9,3537140027,24.0141224,120.6294141,OK
233,彰化縣芬園鄉竹林村彰南路四段２４７號,9,3537140134,24.0167967,120.6285331,OK
234,彰化縣芬園鄉茄荖村芬草路１段１８６號,9,3537141257,24.0107091,120.645544,OK
235,彰化縣芬園鄉彰南路４段２０１號,9,3537141293,24.0156438,120.628656,OK
236,彰化縣大村鄉村上村中正西路６２號,9,3537150041,23.9890829,120.5617296,OK
237,彰化縣大村鄉大村村中正西路３３１２號,7,3537150069,23.9968224,120.5437406,OK
238,彰化縣大村鄉大村村茄苳路一段２３５號,9,3537150078,23.999409,120.544911,OK
239,彰化縣大村鄉福興村山腳路６９之１５號,9,3537151093,23.9456055,120.6006875,OK
240,彰化縣大村鄉村上村中山路２段２４４之３號１樓,9,3537151100,23.9886747,120.5644646,OK
241,彰化縣埔鹽鄉埔南村彰水路１段２０７，２０９號,9,3537160038,23.9917254,120.4771737,OK
242,彰化縣埔鹽鄉埔南村彰水路一段３７５號,9,3537160056,23.9951296,120.4764696,OK
243,彰化縣埔鹽鄉好修村中正路１９９之２號,9,3537160074,23.9998475,120.4644561,OK
244,彰化縣埔鹽鄉埔鹽村彰水路２段１０號１樓,9,3537161188,23.9959948,120.4765404,OK
245,彰化縣埔鹽鄉新水村大新路１２之１號,9,3537161197,23.985056,120.445057,OK
246,彰化縣埔心鄉義民村員鹿路二段１２４號,9,3537170061,23.9526951,120.548202,OK
247,彰化縣埔心鄉東門村員鹿路二段３１７號,9,3537170089,23.9527375,120.5440061,OK
248,彰化縣埔心鄉太平村中山路３９號,9,3537170105,23.9384258,120.5586643,OK
249,彰化縣埔心鄉東門村員鹿路二段２９１號,9,3537170169,23.9527437,120.5445446,OK
250,彰化縣埔心鄉東門村員鹿路２段３２７號,9,3537171175,23.9527356,120.543786,OK
251,彰化縣永靖鄉永東村東門路２３５號,9,3537180030,23.9213443,120.5469632,OK
252,彰化縣永靖鄉永西村永靖街１８５號,9,3537180049,23.9234637,120.5455729,OK
253,彰化縣永靖鄉永西村永靖街１１９號,9,3537180058,23.922191,120.546004,OK
254,彰化縣永靖鄉瑚璉里永興路３段２６０號,9,3537181144,23.9229165,120.5538927,OK
255,彰化縣永靖鄉瑚璉路１６７巷６號,9,3537181153,23.9249086,120.5499575,OK
256,彰化縣永靖鄉永西村瑚璉路２４３號,9,3537181199,23.9243775,120.5479045,OK
257,彰化縣永靖鄉永東村永和巷２５號,9,3537181206,23.9206444,120.5473434,OK
258,彰化縣永靖鄉永西村瑚璉路３０６號,9,3537181215,23.9239748,120.5466515,OK
259,彰化縣永靖鄉永東村永寧街２６號,9,3537181224,23.92242,120.5475446,OK
260,彰化縣社頭鄉社頭里員集路二段３０４號,9,3537190027,23.8988867,120.5861176,OK
261,彰化縣社頭鄉社頭村員集路二段２２１號,9,3537190063,23.8986745,120.5876486,OK
262,彰化縣社頭鄉社頭村員集路二段３０３號,9,3537190072,23.9001631,120.58705,OK
263,彰化縣社頭鄉仁雅村社斗路一段２０９號,9,3537190081,23.8974714,120.5877719,OK
264,彰化縣社頭鄉社頭村忠孝三路９號,9,3537190090,23.898345,120.5895853,OK
265,彰化縣社頭鄉社頭村員集路二段１７６號,9,3537190125,23.8978473,120.5880919,OK
266,彰化縣社頭鄉仁雅村社斗路一段２７９號,9,3537190143,23.8970748,120.5864099,OK
267,彰化縣社頭鄉仁雅村員集路２段６號,9,3537190161,23.8946588,120.5882877,OK
268,彰化縣社頭鄉員集路二段330號,9,3537191220,23.900844,120.587138,OK
269,彰化縣社頭鄉社頭村員集路２段３２７、３２９號１、２樓,9,3537191248,23.9006623,120.5869603,OK
270,彰化縣社頭鄉社頭村清水岩路３９５號,9,3537191257,23.8996003,120.588806,OK
271,彰化縣社頭鄉社頭村清水岩路３３３號,9,3537191266,23.8996851,120.5901048,OK
272,彰化縣社頭鄉仁雅村信義三路７２號,9,3537191275,23.8977955,120.5898065,OK
273,彰化縣二水鄉光化村員集路四段１４號,9,3537200019,23.8114666,120.6161928,OK
274,彰化縣二水鄉光化村光文路５２號,9,3537200073,23.812506,120.617054,OK
275,彰化縣二水鄉聖化村溪邊巷９２號,9,3537200082,23.8101153,120.6173083,OK
276,彰化縣二水鄉員集路４段５４號,9,3537201114,23.8123017,120.6157414,OK
277,彰化縣二水鄉光化村員集路４段５４號１樓,9,3537201132,23.8123017,120.6157414,OK
278,彰化縣二水鄉聖化村員集路三段７４０號,9,3537201150,23.811087,120.615798,OK
279,彰化縣田尾鄉溪畔村民生路一段２２號,9,3537210033,23.9033371,120.537057,OK
280,彰化縣田尾鄉饒平村東平巷２３０弄６０號,9,3537210079,23.8898709,120.527399,OK
281,彰化縣田尾鄉中山路２段３７５號,9,3537211085,23.9014903,120.5370118,OK
282,彰化縣田尾鄉溪畔村中山路２段４０７號,9,3537211094,23.9019161,120.5371265,OK
283,彰化縣埤頭鄉合興村斗苑西路４２６號,9,3537220011,23.8925713,120.4554877,OK
284,彰化縣埤頭鄉合興村彰水路三段５６７號,9,3537220075,23.89317,120.4596647,OK
285,彰化縣埤頭鄉合興村斗苑西路１５６號,9,3537221134,23.8915985,120.4609086,OK
286,彰化縣埤頭鄉合興村彰水路３段４９４號,9,3537221143,23.8918063,120.459409,OK
287,彰化縣埤頭鄉合興村斗苑西路３８２號,9,3537221189,23.892341,120.4564782,OK
288,彰化縣埤頭鄉合興村斗苑西路２７７號,9,3537221232,23.8918107,120.4588051,OK
289,彰化縣埤頭鄉合興村彰水路３段４９２號,9,3537221241,23.8918063,120.459409,OK
290,彰化縣芳苑鄉民生里建成路４４號,2,3537230035,23.9455949,120.3550808,OK
291,彰化縣芳苑鄉興仁村建成路１１７號,9,3537231121,23.962022,120.339813,OK
292,彰化縣芳苑鄉漢寶村芳漢路漢一段５３５巷６７弄８號,8,3537231130,23.9944393,120.3616646,OK
293,彰化縣芳苑鄉博愛村芳漢路王功段４５９號,9,3537231210,23.9638948,120.338891,OK
294,彰化縣芳苑鄉三成村上林路路上段４０３號,9,3537231265,23.8919939,120.3351254,OK
295,彰化縣芳苑鄉福榮村上林路路上段５２１號,9,3537231274,23.8918548,120.3346021,OK
296,彰化縣芳苑鄉福榮村上林路路上段５２１號,9,3537231283,23.8918548,120.3346021,OK
297,彰化縣芳苑鄉漢寶村成功一路６１號,9,3537231292,24.0045149,120.3707647,OK
298,彰化縣大城鄉東城村中平路５５號,9,3537240013,23.854791,120.32138,OK
299,彰化縣大城鄉東城村東平路１６８號,9,3537240031,23.8562982,120.3232158,OK
300,彰化縣竹塘鄉竹塘村文化街４２號,9,3537250055,23.8608255,120.4282045,OK
301,彰化縣竹塘鄉竹塘村仁愛路５６號,9,3537250064,23.8627351,120.427292,OK
302,彰化縣竹塘鄉竹塘村竹林路一段二○○號,7,3537251105,23.861927,120.4256805,OK
303,彰化縣竹塘鄉竹塘村竹塘街６８號,9,3537251123,23.8608174,120.4259219,OK
304,彰化縣溪州鄉尾厝村中山路３段４４８、４５０號,9,3537260122,23.8526607,120.4972943,OK
305,彰化縣溪州鄉溪州村中央路３段２３９．２４１號,9,3537261183,23.8315758,120.4941709,OK
306,彰化縣溪洲鄉成功村前庄巷１之１６號,9,3537261192,23.8228889,120.5448403,OK
307,南投縣南投市三和里三和二路６３號,9,3538010019,23.9041413,120.6884901,OK
308,南投縣南投市大同南街３０號,9,3538010037,23.903736,120.689199,OK
309,南投縣南投市龍泉里大同街１７４號,9,3538010055,23.909742,120.687585,OK
310,南投縣南投市仁和里民生街３５號,9,3538010091,23.9098178,120.6850935,OK
311,南投縣南投市仁和里彰南路二段５０號,9,3538010144,23.90942,120.684743,OK
312,南投縣南投市崇文里復興路１５９號,9,3538010171,23.906281,120.686972,OK
313,南投縣南投市學文里復興路１９１號,4,3538010180,23.9179637,120.6775054,OK
314,南投縣南投市南投里民族路２４４號,9,3538010199,23.909061,120.687544,OK
315,南投縣南投市彰仁里文昌街９８號,9,3538010215,23.9074363,120.6856197,OK
316,南投縣南投市民生街４７號,9,3538010233,23.9098243,120.6847687,OK
317,南投縣南投市康壽里玉井街９８號,9,3538010251,23.9115631,120.6850321,OK
318,南投市三和里三和二路８５號,9,3538010288,23.903813,120.687541,OK
319,南投縣南投市民族路２８０號,9,3538010304,23.908831,120.686738,OK
320,南投縣南投市中山街２３８號,9,3538010322,23.9104804,120.6848298,OK
321,南投縣南投市中山街１４巷２３號,9,3538010340,23.9057289,120.6872417,OK
322,南投縣南投市彰南路一段１０２７號,9,3538010368,23.9048047,120.685289,OK
323,南投縣南投市文昌街７５號,9,3538010420,23.9072668,120.6867441,OK
324,南投縣南投市三和里復興路８８號,9,3538010439,23.9038736,120.6881273,OK
325,南投縣南投市崇文里民族路３２５號,9,3538010448,23.9077481,120.684815,OK
326,南投縣南投市三和里復興路９９４號,7,3538010466,23.9028921,120.6882867,OK
327,南投縣南投市三和里復興路９９－３號,9,3538010475,23.903963,120.6877705,OK
328,南投縣南投市大同街１巷２號,9,3538010484,23.906102,120.688208,OK
329,南投市復興路３０７號,9,3538010528,23.9100219,120.6859527,OK
330,南投市復興路３７３號,9,3538010537,23.9091837,120.6827828,OK
331,南投縣南投市三和二路３９號,9,3538010546,23.9042604,120.6891938,OK
332,南投縣南投市南陽路475號,9,3538010555,23.9115659,120.6810453,OK
333,南投縣南投市三和二路１０５號,9,3538010573,23.9038029,120.6868243,OK
334,南投縣南投市復興路８４號,9,3538010582,23.9037942,120.688146,OK
335,南投縣南投市復興路９１號,9,3538010644,23.9039581,120.6877546,OK
336,南投縣南投市民權街１９２號,9,3538010653,23.9087477,120.6840484,OK
337,南投縣南投市漳和里彰南路２段４００號１樓,9,3538010662,23.9159721,120.6790544,OK
338,南投縣南投市南投里彰南路二段１５號,9,3538011678,23.9083011,120.684471,OK
339,南投縣南投市崇文里復興路１７６號,9,3538011712,23.9068093,120.6873794,OK
340,南投縣南投市民族路３００號,9,3538011758,23.908709,120.686295,OK
341,南投縣南投市平和里民族路１６５１號,7,3538011767,23.9137818,120.6904429,OK
342,南投縣南投市平和里民族路１６５１號,7,3538011776,23.9137818,120.6904429,OK
343,南投縣南投市崇文里大同街５號,9,3538011785,23.906242,120.6882019,OK
344,南投縣南投市中興路６１６號一樓,9,3538011801,23.9045121,120.690569,OK
345,南投縣南投市復興路１０９號,9,3538011810,23.9048644,120.6875626,OK
346,南投縣南投市復興路９６－２號,9,3538011847,23.904093,120.6880926,OK
347,南投縣南投市民族路２４３號,9,3538011856,23.9087481,120.687413,OK
348,南投縣南投市中興路５０２－１號,9,3538011865,23.9085585,120.6917497,OK
349,南投縣南投市三興里集賢路３４號１樓,9,3538011883,23.905002,120.6843162,OK
350,南投縣南投市中學西路８５號,9,3538011918,23.9459801,120.69115,OK
351,南投縣南投市福山里八卦路５０７號１樓,9,3538011945,23.912334,120.638024,OK
352,南投縣南投市復興路１６８號１樓,9,3538011954,23.906565,120.6873821,OK
353,南投縣南投市集賢路３６號,9,3538011981,23.9049928,120.6842819,OK
354,南投縣南投市復興路１８７號１樓,9,3538011990,23.9069633,120.6870441,OK
355,南投縣南投市南崗二路２９８號１樓,9,3538012022,23.9131301,120.678279,OK
356,南投縣南投市民族路１６７號１樓,9,3538012031,23.9095652,120.68971,OK
357,南投縣南投市民族路２５８號,9,3538012040,23.909003,120.687205,OK
358,南投縣南投市民族路３９５號１樓,9,3538012059,23.907343,120.683457,OK
359,南投縣南投市八德路３７６號１樓,9,3538012068,23.9081797,120.6368848,OK
360,南投縣南投市民族路１６７號１Ｆ,9,3538012077,23.9095652,120.68971,OK
361,南投縣南投市民族路２４３號,9,3538012086,23.9087481,120.687413,OK
362,南投縣南投市民族路１２３號１－２樓,9,3538012095,23.9050157,120.6728324,OK
363,南投縣埔里鎮大城里中山路３段２８５號,9,3538020015,23.9684866,120.9581489,OK
364,南投縣埔里鎮西門里中正一路２２號,9,3538020042,23.9686514,120.9639803,OK
365,南投縣埔里鎮東門里中正路４０８號,9,3538020168,23.9649089,120.967818,OK
366,南投縣埔里鎮南門里中山路二段３８６號,9,3538020177,23.9638181,120.9657958,OK
367,南投縣埔里鎮南門里中山路二段３３１號,9,3538020211,23.964526,120.966974,OK
368,南投縣埔里鎮南盛街２８號,9,3538020266,23.961421,120.968479,OK
369,南投縣埔里鎮薰化一巷２７號,9,3538020275,23.9669855,120.9641677,OK
370,南投縣埔里鎮西門里中正路４５３號,9,3538020284,23.9662748,120.9661347,OK
371,南投縣埔里鎮薰化里西康路６４號,9,3538020293,23.9660053,120.9645926,OK
372,南投縣埔里鎮南門里西安路一段７６號,9,3538020319,23.9654294,120.9658517,OK
373,南投縣埔里鎮薰化里中山路三段１２８號,9,3538020382,23.9668899,120.9626394,OK
374,南投縣埔里鎮中正路４５２號,9,3538020435,23.9664079,120.966157,OK
375,南投縣埔里鎮中正路４６５號,9,3538020444,23.966388,120.965757,OK
376,南投縣埔里鎮中正一路１６０．１６２號,9,3538020480,23.9695207,120.9649913,OK
377,南投縣埔里鎮北辰街１號,9,3538020499,23.963562,120.971973,OK
378,南投縣埔里鎮中正路460號,9,3538020506,23.96662,120.965973,OK
379,南投縣埔里鎮中正路４３１號,9,3538020524,23.9654789,120.966798,OK
380,南投縣埔里鎮中正路５６３號１樓,9,3538020551,23.9726324,120.9631857,OK
381,南投縣埔里鎮中正路４０２號,9,3538020588,23.964918,120.967849,OK
382,南投縣埔里鎮南昌街１６０號,9,3538020604,23.9650207,120.9661366,OK
383,南投縣埔里鎮東門里中正路３８７號,9,3538020613,23.9644279,120.967932,OK
384,南投縣埔里鎮薰化里中山路３段３９號,0,3538021674,,,OVER_QUERY_LIMIT
385,南投縣埔里鎮同聲里忠孝路３２９號,0,3538022171,,,OVER_QUERY_LIMIT
386,南投縣埔里鎮南門里中山路２段３４９號,0,3538022199,,,OVER_QUERY_LIMIT
387,南投縣埔里鎮薰化里南昌街２２９號,0,3538022215,,,OVER_QUERY_LIMIT
388,南投縣埔里鎮南門里中山路２段３６３號,9,3538022224,23.9637933,120.9658218,OK
389,南投縣埔里鎮南昌街１９０號,9,3538022233,23.9655206,120.9656116,OK
390,南投縣埔里鎮北門里中正路４６４號,9,3538022242,23.9726323,120.9631857,OK
391,南投縣埔里鎮中正路４２７號,9,3538022251,23.965526,120.9669187,OK
392,南投縣埔里鎮中山路３段１００號,9,3538022260,23.9663314,120.9632247,OK
393,南投縣埔里鎮和平東路４１７號,9,3538022313,23.9709405,120.9768717,OK
394,南投縣埔里鎮東門里中正路３８９號,9,3538022322,23.964459,120.9679,OK
395,南投縣埔里鎮中山路二段２６２號,9,3538022331,23.9664204,120.9687439,OK
396,南投縣埔里鎮北辰街１１９號１樓,9,3538022340,23.9678001,120.9674742,OK
397,南投縣埔里鎮南昌街２５７號,9,3538022359,23.9668662,120.9639223,OK
398,南投縣埔里鎮中山路３段８７號１樓,9,3538022386,23.9660456,120.9633161,OK
399,南投縣埔里鎮中山路３段８７號１樓,9,3538022395,23.9660456,120.9633161,OK
400,南投縣埔里鎮中山路２段２４７之１號,9,3538022411,23.967206,120.969798,OK
401,南投縣埔里鎮西安路１段１２６號,9,3538022466,23.9684819,120.965759,OK
402,南投縣埔里鎮西安路一段８８號,9,3538022485,23.966005,120.9664671,OK
403,南投縣埔里鎮南門里南昌街１９８號,9,3538022537,23.965822,120.9651701,OK
404,南投縣埔里鎮一新里東峰路１９號,9,3538022546,24.0028121,120.9456044,OK
405,南投縣埔里鎮中山路二段３５５號,9,3538022564,23.9641832,120.9662672,OK
406,南投縣埔里鎮中山路２段２１３號１樓,9,3538022573,23.9674569,120.9701811,OK
407,南投縣埔里鎮蜈蚣里中山路一段１８２－１號１樓,9,3538022591,23.9784619,121.002184,OK
408,南投縣埔里鎮和平東路４１３號,9,3538022608,23.9707856,120.9770222,OK
409,南投縣埔里鎮西安路一段７０號１樓及２樓,9,3538022617,23.9652409,120.965679,OK
410,南投縣埔里鎮信義路１０１９號１樓,9,3538022626,23.971141,120.9575588,OK
411,南投縣埔里鎮和平東路４１７號１樓,9,3538022635,23.9709405,120.9768717,OK
412,南投縣埔里鎮西安路一段７０號１、２Ｆ,9,3538022644,23.9652409,120.965679,OK
413,南投縣埔里鎮西安路一段７０號１、２Ｆ,9,3538022653,23.9652409,120.965679,OK
414,南投縣埔里鎮忠孝路３００號１樓,9,3538022662,23.9653113,120.973956,OK
415,南投縣草屯鎮中山街２４２號,9,3538030048,23.9790062,120.6830854,OK
416,南投縣草屯鎮明正里中正路７３３號,9,3538030057,23.980796,120.6845072,OK
417,南投縣草屯鎮山腳里虎山路５０９號,9,3538030066,23.9690419,120.6869495,OK
418,南投縣草屯鎮中山里太平路二段２３１號,9,3538030075,23.9747294,120.683439,OK
419,南投縣草屯鎮和平里中山街１１６號,9,3538030100,23.976122,120.68274,OK
420,南投縣草屯鎮中山街１７９號,9,3538030137,23.9777276,120.6827252,OK
421,南投縣草屯鎮和平里育英街１８７號,9,3538030155,23.976675,120.683405,OK
422,南投縣草屯鎮明正里中正路７４１號,9,3538030164,23.9809866,120.6845351,OK
423,南投縣草屯鎮炎峰里虎山路８９７號,9,3538030244,23.9782711,120.6857232,OK
424,南投縣草屯鎮和平里虎山路８４１號,9,3538030306,23.9768645,120.6857433,OK
425,南投縣草屯鎮和平里太平路二段２７４號,9,3538030324,23.9771779,120.684239,OK
426,南投縣草屯鎮中山街２７７號,9,3538030360,23.9798882,120.6830838,OK
427,南投縣草屯鎮中山街２７５號,9,3538030422,23.9798474,120.68308,OK
428,南投縣草屯鎮中正路６２６號,9,3538030440,23.9791249,120.685318,OK
429,南投縣草屯鎮中正路７７１號,9,3538030459,23.9816694,120.6846156,OK
430,南投縣草屯鎮御史里中正路１２１４號,9,3538030468,23.992535,120.688363,OK
431,南投縣草屯鎮虎山路７８８號,9,3538030477,23.9761865,120.6859859,OK
432,南投縣草屯鎮山腳里虎山路９９號,9,3538030502,23.9597452,120.6850158,OK
433,南投縣草屯鎮和平里和興三街２４號,9,3538030520,23.9762885,120.6846736,OK
434,南投縣草屯鎮炎峰村中正路６０８號,9,3538030593,23.979127,120.686107,OK
435,南投縣草屯鎮玉屏路４３－１３號,9,3538030600,23.9970816,120.7191757,OK
436,南投縣草屯鎮虎山路７４８號,9,3538030691,23.9752354,120.6859721,OK
437,南投縣草屯鎮中山街１８４號,9,3538030771,23.9777439,120.682948,OK
438,南投縣草屯鎮炎峰里中正路６０２１號,8,3538030815,23.9777574,120.6882867,OK
439,南投縣草屯鎮新厝里虎山路７３６號,9,3538030851,23.974988,120.6859583,OK
440,南投縣草屯鎮山腳里虎山路１２６號,9,3538030860,23.9606913,120.6854523,OK
441,南投縣草屯鎮和平里太平路二段２３４號,9,3538030904,23.9760359,120.683961,OK
442,南投縣草屯鎮中山里中山街１９５號,9,3538030922,23.978271,120.682796,OK
443,南投縣草屯鎮富寮里富昌路２-１號,9,3538030968,23.9787334,120.6975366,OK
444,南投縣草屯鎮新厝里太平路２段１７８號,9,3538030995,23.9734559,120.6835604,OK
445,南投縣草屯鎮碧山南路１３號,9,3538031081,23.9779399,120.6812522,OK
446,南投縣草屯鎮太平路２段２２８號,9,3538031107,23.975936,120.68395,OK
447,南投縣草屯鎮炎峰里炎峰街１４２號,8,3538032159,23.9777574,120.6882867,OK
448,南投縣草屯鎮明賢街１０號,9,3538032739,23.9756659,120.6850828,OK
449,南投縣草屯鎮太平路二段２８號１、２樓,9,3538032748,23.9702216,120.6829095,OK
450,南投縣草屯鎮碧山南路２１號１樓,9,3538032793,23.9779443,120.6810838,OK
451,南投縣草屯鎮中山里太平路２段２０７號,9,3538032800,23.9736655,120.6832895,OK
452,南投縣草屯鎮虎山路７８６號,9,3538032837,23.9761437,120.6859888,OK
453,南投縣草屯鎮太平路一段４４５號,9,3538032855,23.9664657,120.6821467,OK
454,南投縣草屯鎮史館路３７０號,9,3538032882,23.990691,120.667919,OK
455,南投縣草屯鎮明正里自由街１３４巷２３號,9,3538032926,23.9846565,120.6847695,OK
456,南投縣草屯鎮太平路２段９３、９５號１樓,9,3538032935,23.9715015,120.6829526,OK
457,南投縣草屯鎮炎峰街９４號,9,3538032953,23.9810559,120.6857745,OK
458,南投縣草屯鎮虎山路７４６號,9,3538032962,23.9751953,120.6859731,OK
459,南投縣草屯鎮新豐路７２８巷１８號,9,3538032971,23.9888261,120.679431,OK
460,南投縣草屯鎮中正路２３３之１２號,9,3538032999,23.9794946,120.7227217,OK
461,南投縣草屯鎮和平里明賢街６６號,9,3538033003,23.975864,120.683252,OK
462,南投縣草屯鎮中山街３６號及３８號１F,9,3538033012,23.9750671,120.6826093,OK
463,南投縣草屯鎮中山街５３號,9,3538033021,23.9751739,120.682366,OK
464,南投縣草屯鎮中正路６７０號,9,3538033030,23.979404,120.684456,OK
465,南投縣草屯鎮太平路一段２５５號１及２樓,9,3538033049,23.9621676,120.6817077,OK
466,南投縣草屯鎮和平街３１號１樓,9,3538033058,23.9789216,120.6834808,OK
467,南投縣草屯鎮草溪路９７８號１－２樓,9,3538033067,23.976251,120.6814445,OK
468,南投縣草屯鎮中正路７６１號１樓,9,3538033076,23.9814623,120.6845941,OK
469,南投縣草屯鎮南埔里中正路２３３－１２號,9,3538033085,23.9794946,120.7227217,OK
470,南投縣草屯鎮和平里育英街２００號,9,3538033094,23.976868,120.683466,OK
471,南投縣草屯鎮炎峰里中正路５９０、５９０－１號１Ｆ,9,3538033101,23.9793409,120.6873549,OK
472,南投縣草屯鎮玉峰里炎峰街８４號１樓,9,3538033110,23.9809102,120.6859923,OK
473,南投縣草屯鎮南埔里中正路２３３之１２號,9,3538033129,23.9794946,120.7227217,OK
474,南投縣竹山鎮延和里集山路三段６２３巷１號,9,3538040017,23.759544,120.689938,OK
475,南投縣竹山鎮雲林里集山路３段１００１號,9,3538040035,23.755291,120.681122,OK
476,南投縣竹山鎮中山里埔頭街一巷１號,9,3538040071,23.753325,120.680293,OK
477,南投縣竹山鎮竹山里竹山路２號,9,3538040080,23.757526,120.686682,OK
478,南投縣竹山鎮雲林里集山路３段１０３９號,9,3538040106,23.754582,120.680581,OK
479,南投縣竹山鎮竹山里下橫街５８之７號,9,3538040124,23.7581149,120.6834591,OK
480,南投縣竹山鎮山崇里南雲路５１號,9,3538040160,23.80485,120.7141558,OK
481,南投縣竹山鎮延平里集山路三段１８號,9,3538040179,23.7668958,120.7061777,OK
482,南投縣竹山鎮延和里大明路１９４號,9,3538040197,23.760562,120.686773,OK
483,南投縣竹山鎮雲林路５９號,9,3538040277,23.7553628,120.6824019,OK
484,南投縣竹山鎮雲林路１０８號,9,3538040302,23.7541071,120.680661,OK
485,南投縣竹山鎮集山路三段833號,9,3538040311,23.7577967,120.6846531,OK
486,南投縣竹山鎮前山路一段９５號,9,3538040339,23.7572099,120.6796241,OK
487,南投縣竹山鎮集山路三段８１６號,9,3538040357,23.7593281,120.686517,OK
488,南投縣竹山鎮集山路３段１０６２號,9,3538040366,23.755355,120.68076,OK
489,南投縣竹山鎮竹山里集山路三段816-3及816-4號,9,3538041381,23.759593,120.686385,OK
490,南投縣竹山鎮集山路３段８２０號,9,3538041407,23.7592861,120.6866641,OK
491,南投縣竹山鎮前山路一段２３號,9,3538041416,23.7566997,120.6815069,OK
492,南投縣竹山鎮集山路三段４８３號,9,3538041425,23.7609536,120.6928984,OK
493,南投縣竹山鎮集山路三段８１６之２號,9,3538041434,23.759519,120.686415,OK
494,南投縣竹山鎮集山路三段８７９號,9,3538041443,23.757134,120.683586,OK
495,南投縣竹山鎮桂林里中正巷２７－９９號,9,3538041505,23.756748,120.691622,OK
496,南投縣竹山鎮集山路三段８２４及８２６號,9,3538041514,23.7592289,120.6865776,OK
497,南投縣竹山鎮下坪里枋坪巷２－９號,9,3538041523,23.7622788,120.6809684,OK
498,南投縣竹山鎮前山路一段６４號１樓,9,3538041532,23.757515,120.679702,OK
499,南投縣竹山鎮集山路三段８９３號１樓,9,3538041541,23.757009,120.6832577,OK
500,南投縣竹山鎮集山路三段９４８－１號１樓,9,3538041550,23.7622565,120.680148,OK
501,南投縣竹山鎮集山路三段８９３號,9,3538041569,23.757009,120.6832577,OK
502,南投縣集集鎮集集里民生路234號,9,3538051154,23.8270614,120.7825261,OK
503,南投縣集集鎮集集里民生路２４２號,9,3538051172,23.827054,120.7824033,OK
504,南投縣名間鄉中正村彰南路６５－１號,9,3538060117,23.839596,120.701402,OK
505,南投縣名間鄉新街村彰南路４７０號,9,3538060126,23.8795948,120.6932093,OK
506,南投縣名間鄉松山村名松路２段２７９號,9,3538061276,23.83585,120.634091,OK
507,南投縣名間鄉員集路９３號,9,3538061285,23.83535,120.70355,OK
508,南投縣名間鄉南田路８６－１６號,9,3538061294,23.8764015,120.6565642,OK
509,南投縣名間鄉南雅村南雅街１１３號,9,3538061329,23.8377531,120.70175,OK
510,南投縣名間鄉南雅街１２４號,9,3538061338,23.838039,120.702376,OK
511,南投縣鹿谷鄉鹿谷村六合街１１０號,9,3538070024,23.7462443,120.7530383,OK
512,南投縣鹿谷鄉彰雅村中正路一段３２４號,9,3538070033,23.7436947,120.755168,OK
513,南投縣鹿谷鄉廣興村光復路１８８號１樓,9,3538070060,23.7368088,120.7607454,OK
514,南投縣鹿谷鄉中正路一段５５號,9,3538071101,23.7381411,120.7611881,OK
515,南投縣中寮鄉永平村永安街１８８號,9,3538080155,23.8806036,120.7644769,OK
516,南投縣中寮鄉永平村初中巷２１號,7,3538081205,23.8906048,120.7895855,OK
517,南投縣中寮鄉永平村永安街７３號,9,3538081269,23.8792589,120.7673835,OK
518,南投縣中寮鄉永平村永安街７３號１樓,9,3538081278,23.8792589,120.7673835,OK
519,南投縣中寮鄉龍岩村龍南路１９６號１樓,9,3538081287,23.9353843,120.7601975,OK
520,南投縣中寮鄉永平村永安街７３號１樓,9,3538081296,23.8792589,120.7673835,OK
521,南投縣魚池鄉魚池村魚池街３９２號,9,3538090071,23.8968909,120.9364865,OK
522,南投縣魚池鄉魚池村魚池街１２５之２號１樓,9,3538091096,23.8941333,120.9413879,OK
523,南投縣魚池鄉魚池街３３４巷１６號,9,3538091103,23.897394,120.938073,OK
524,南投縣國姓鄉北山村南港路３０３號１樓,9,3538101355,23.9807475,120.8720667,OK
525,南投縣國姓鄉中興路１７８號,9,3538101373,24.0401501,120.8556956,OK
526,南投縣國姓鄉中興路１３０號１樓,9,3538101382,24.0412384,120.856656,OK
527,南投縣國姓鄉北山村南港路３０３號１樓,9,3538101408,23.9807475,120.8720667,OK
528,南投縣水里鄉民生路３７７號,9,3538110032,23.8166711,120.8541553,OK
529,南投縣水里鄉水里村民權路１５０號,9,3538110087,23.8182765,120.8542305,OK
530,南投縣水里鄉民生路３７０號,9,3538110103,23.817822,120.8536732,OK
531,南投縣水里鄉民權路１８９號,9,3538110121,23.8170662,120.8520387,OK
532,南投縣水里鄉鉅工村民生路２４２號,9,3538111262,23.8135772,120.855541,OK
533,南投縣水里鄉中正路１８號,9,3538111360,23.8180051,120.8553055,OK
534,南投縣水里鄉民生路１２６號,9,3538111422,23.8163055,120.854355,OK
535,南投縣水里鄉民權路２３０及２３２號,9,3538111468,23.8175609,120.852689,OK
536,南投縣水里鄉民生路２０１及２０３號１樓,9,3538111548,23.8116038,120.8556686,OK
537,南投縣水里鄉民權路１９０、１９２號,9,3538111557,23.8174931,120.8527458,OK
538,南投縣水里鄉民族路３６２號１樓,9,3538111566,23.8160445,120.8535115,OK
539,南投縣水里鄉中正路１８號,9,3538111575,23.8180051,120.8553055,OK
540,南投縣信義鄉羅娜村信筆巷１８２４號,4,3538121133,23.6136184,120.8585076,OK
541,南投縣信義鄉明德村新開巷１００號,9,3538121179,23.695912,120.854956,OK
542,南投縣信義鄉同富村同和巷９９號,9,3538121188,23.5916339,120.889202,OK
543,南投縣信義鄉同富村同和巷６７－１號,9,3538121197,23.592139,120.888573,OK
544,南投縣信義鄉玉山路２９－１號,9,3538121259,23.696129,120.854771,OK
545,南投縣信義鄉地利村開信巷７之１號,9,3538121277,23.792538,120.940774,OK
546,南投縣信義鄉人和村民生巷６８號１樓,9,3538121286,23.8098282,120.8567292,OK
547,南投縣信義鄉地利村開信巷７之１號,9,3538121295,23.792538,120.940774,OK
548,南投縣信義鄉羅娜村信筆巷１８２－４號,9,3538121302,23.634622,120.888696,OK
549,南投縣仁愛鄉大同村仁和路３８號,9,3538131031,24.021948,121.1320703,OK
550,南投縣仁愛鄉大同村仁和路１０８號,9,3538131059,24.0229989,121.132702,OK
551,南投縣仁愛鄉大同村仁和路１５３號,9,3538131077,24.0587365,121.1638698,OK
552,南投縣仁愛鄉大同村仁和路５５號,9,3538131095,24.0727265,121.1687373,OK
553,南投縣仁愛鄉互助村中華路２００號１樓,9,3538131102,23.9703289,120.9727866,OK
554,臺中市豐原區中山路４１５號１樓,9,3703010014,24.250562,120.714216,OK
555,臺中市豐原區圓環東路２６５號１樓,9,3703010023,24.244217,120.722286,OK
556,臺中市豐原區圓環東路４５５號１樓及２樓,9,3703010032,24.24729,120.72625,OK
557,臺中市豐原區和平街４８號及５０號１樓,9,3703010041,24.2530313,120.7200723,OK
558,臺中市東勢區豐勢路４５５號及４５７號１樓,9,3703020010,24.256067,120.8288385,OK
559,臺中市東勢區文新街７５號１樓,9,3703020029,24.2609499,120.828971,OK
560,臺中市大甲區蔣公路２９２號１樓及２樓,9,3703030016,24.347769,120.618137,OK
561,臺中市大甲區中華街８５號１樓,9,3703030025,24.3453014,120.6211086,OK
562,臺中市大甲區德興路２０１號１樓及２樓,9,3703030034,24.3519966,120.6195134,OK
563,臺中市清水區建國路１２８號１樓,9,3703040012,24.2699706,120.5600902,OK
564,臺中市沙鹿區北勢東路６１１號１樓,9,3703050018,24.2291278,120.5736837,OK
565,臺中市沙鹿區北勢東路６１１號１樓,9,3703050027,24.2291278,120.5736837,OK
566,臺中市沙鹿區中山路１８２號１樓,9,3703050036,24.2759968,120.5772762,OK
567,臺中市梧棲區中興路３７０號１樓,9,3703060014,24.2578807,120.5348685,OK
568,臺中市神岡區豐洲路３８２號１樓,9,3703080016,24.2608281,120.7063976,OK
569,臺中市神岡區五權路２０號１樓,9,3703080025,24.2586233,120.7126417,OK
570,臺中市潭子區潭興路二段３６２號,9,3703090012,24.2105286,120.7098227,OK
571,臺中市潭子區勝利路２６５號１樓及２樓,9,3703090021,24.2127766,120.7005526,OK
572,臺中市潭子區頭張路二段３１號１樓,9,3703090030,24.1943719,120.6972532,OK
573,臺中市潭子區圓通南路８號１樓及２樓,9,3703090049,24.2064526,120.709476,OK
574,臺中市潭子區圓通南路２０２號１樓,9,3703090058,24.2072793,120.7041292,OK
575,臺中市潭子區潭興路３段１０２號２樓,9,3703090067,24.2118334,120.7015874,OK
576,臺中市大雅區雅環路二段８３號１樓,9,3703100022,24.2264143,120.6528237,OK
577,臺中市大雅區學府路１４３號１樓及２樓,9,3703100031,24.2202239,120.6501326,OK
578,臺中市新社區中和街５段２５號１樓及２樓,9,3703110019,24.2483666,120.8079993,OK
579,臺中市大肚區遊園路二段５２之１號,9,3703160019,24.170063,120.5796727,OK
580,臺中市龍井區新興路５２號１及２樓,9,3703170015,24.1814991,120.5867291,OK
581,臺中市龍井區國際街１２０號１樓及２樓,9,3703170024,24.1867785,120.5954695,OK
582,臺中市龍井區藝術街１９巷５號１樓,9,3703170033,24.187325,120.5948227,OK
583,臺中市霧峰區中正路８７６號１樓,9,3703180011,24.0644768,120.6987052,OK
584,臺中市太平區中山路三段２－９號１樓,9,3703190017,24.1493333,120.7223057,OK
585,臺中市太平區樹德路９７－２號１樓,9,3703190026,24.1526529,120.7112943,OK
586,臺中市太平區樹孝路３０５號１樓,9,3703190035,24.154219,120.718426,OK
587,臺中市太平區東平路５１５號１樓,9,3703190044,24.133396,120.718699,OK
588,臺中市太平區宜昌路５０８號１樓及２樓,9,3703190053,24.1465729,120.714965,OK
589,臺中市太平區光興路８１５號１樓,9,3703190062,24.111728,120.730626,OK
590,臺中市太平區樹孝路２５７號１樓及２樓,9,3703190071,24.1537874,120.7183451,OK
591,臺中市太平區新興路５５號１樓及２樓,9,3703190080,24.1990899,120.710259,OK
592,臺中市大里區永興路３１８號,9,3703200018,24.1139188,120.6812992,OK
593,臺中市大里區大明路２１３號,9,3703200027,24.1152457,120.684193,OK
594,臺中市大里區大明路４１０號,9,3703200036,24.1149881,120.6777382,OK
595,臺中市大里區甲堤南路２１號１樓及２樓,9,3703200045,24.100623,120.6944812,OK
596,臺中市大里區中興路二段６９２號１樓,9,3703200054,24.117134,120.689721,OK
597,臺中市大里區東榮路６０９號１樓,9,3703200063,24.1093252,120.676616,OK
598,臺中市大里區大明路４２７號１樓及２樓,9,3703200072,24.1146846,120.6773829,OK
599,臺中市大里區內新街１５號１樓,9,3703200081,24.114336,120.6903687,OK
600,臺中市大里區塗城路７９７號１樓,9,3703200107,24.0896249,120.698219,OK
601,臺中市中區建國路１６１號１樓,9,3703220010,24.1381774,120.6852735,OK
602,臺中市東區十甲路４２９號１樓,9,3703230016,24.144595,120.7084905,OK
603,臺中市東區精武東路８７號１樓,9,3703230025,24.1493847,120.7091165,OK
604,臺中市東區樂業路２８０號１樓,9,3703230034,24.1388655,120.7021849,OK
605,臺中市西區五權西路一段１３３號１樓,9,3703240012,24.1400082,120.6601886,OK
606,臺中市西區英才路６３９號１樓及２樓,9,3703240021,24.141825,120.666326,OK
607,臺中市西區館前路２０號１樓及２樓,9,3703240049,24.1557409,120.6651968,OK
608,臺中市西區四維街７號１樓,9,3703240058,24.136592,120.676328,OK
609,臺中市西區向上路一段２９３號１樓,9,3703240067,24.1466543,120.6581084,OK
610,臺中市西區中美街１１３號１樓,9,3703240076,24.1445186,120.6600653,OK
611,臺中市南屯區大墩十二街６１６號１樓,9,3703240085,24.1503427,120.6379454,OK
612,臺中市西區館前路２０號１樓及２樓,9,3703240094,24.1557409,120.6651968,OK
613,臺中市西區臺灣大道二段４８９號２０樓之３,9,3703240101,24.156441,120.660265,OK
614,臺中市南區工學里德富路２１７－１號,9,3703250018,24.118065,120.6565988,OK
615,臺中市南區德義里學府路８８號１樓,9,3703250027,24.1274031,120.675011,OK
616,臺中市南區三民西路２８３號１樓,9,3703250045,24.129979,120.6597431,OK
617,臺中市南區五權南路４８１號１樓,9,3703250054,24.1178783,120.6700875,OK
618,臺中市北區三民路三段１１６號２樓,9,3703260014,24.1499657,120.6843604,OK
619,臺中市北區山西路二段２１０號１樓及２樓,9,3703260023,24.1725529,120.6761551,OK
620,臺中市北區英才路３９４號１樓,9,3703260032,24.153957,120.6675126,OK
621,臺中市北區文心路四段１９８號１樓及２樓,9,3703260050,24.1733305,120.6764854,OK
622,臺中市北區美德街１８７號１樓,9,3703260069,24.1581267,120.679683,OK
623,臺中市北區北屯路６１號１樓,9,3703260078,24.1609941,120.6917214,OK
624,臺中市北區進化北路４１６號１樓及２樓,9,3703260087,24.163375,120.675609,OK
625,臺中市北區中清路一段８７６號１樓及２樓,9,3703260096,24.1733757,120.6714229,OK
626,臺中市西屯區福雅路１３０號１樓及２樓,9,3703270010,24.1855566,120.6194542,OK
627,臺中市南屯區文心南五路一段５３１號１樓及２樓,9,3703270029,24.1449165,120.6467881,OK
628,臺中市西屯區臺灣大道二段８８６號１樓,9,3703270038,24.161548,120.6523746,OK
629,臺中市西屯區上安路５０號１樓,9,3703270056,24.1704643,120.6412573,OK
630,臺中市西屯區長安路二段１４０號１樓,9,3703270092,24.174449,120.666321,OK
631,臺中市西屯區中港路三段７８－２號６樓,9,3703270118,24.1792355,120.6234682,OK
632,臺中市西屯區西屯路三段１６９－６號１樓,9,3703270127,24.1886871,120.6163755,OK
633,臺中市西屯區中工三路１９０號１樓,9,3703270136,24.176596,120.617833,OK
634,臺中市西屯區大墩１９街２１０號１樓,9,3703270145,24.1556123,120.6473099,OK
635,臺中市西屯區中工三路１９０號１樓,9,3703270154,24.176596,120.617833,OK
636,臺中市西屯區朝富路１３２號１樓及２樓,9,3703270163,24.165206,120.6364664,OK
637,臺中市西屯區朝富路１３２號１樓及２樓,9,3703270172,24.165206,120.6364664,OK
638,臺中市西屯區福科路７９５號１樓,9,3703270207,24.1870829,120.6085181,OK
639,臺中市南屯區東興路二段２０２號１樓及２樓,9,3703280016,24.1415284,120.6531645,OK
640,臺中市南屯區黎明路二段４３１號,9,3703280034,24.1520442,120.6350961,OK
641,臺中市南屯區文心南五路２７９號１樓,9,3703280043,24.1320277,120.64785,OK
642,臺中市南屯區河南路四段４２９－１號１樓,9,3703280052,24.1497619,120.637885,OK
643,臺中市南屯區大墩路６４９及６５１號１及２樓,9,3703280061,24.1514853,120.649675,OK
644,臺中市南屯區河南路四段４８３號１樓及２樓,9,3703280070,24.147793,120.638434,OK
645,臺中市南屯區公益路二段６２５號１樓及２樓,9,3703280098,24.1509241,120.634072,OK
646,臺中市南屯區公益路二段５２５號１樓及２樓,9,3703280105,24.151175,120.636458,OK
647,臺中市南屯區河南路四段７００號１樓,9,3703280114,24.1449019,120.6390836,OK
648,臺中市南屯區河南路四段３２６號３樓,9,3703280132,24.1533552,120.636675,OK
649,臺中市南屯區大墩十一街６０５號１樓,9,3703280141,24.1484815,120.635257,OK
650,臺中市南屯區河南路四段４９２號１樓,9,3703280150,24.1475823,120.6379658,OK
651,臺中市南屯區忠勇路１０５－２５號１樓,9,3703280169,24.1518827,120.6158121,OK
652,臺中市南屯區大墩十二街６１６號１樓,9,3703280178,24.1503427,120.6379454,OK
653,臺中市南屯區文心南五路一段２７９號１樓,9,3703280187,24.1318839,120.6477675,OK
654,臺中市南屯區忠勇路２５之８號１樓,9,3703280196,24.137586,120.6120712,OK
655,臺中市南屯區文心路一段２１０號１樓,9,3703280203,24.1421085,120.6469617,OK
656,臺中市北屯區北平路三段７２－１號１樓,9,3703290012,24.170826,120.681928,OK
657,臺中市北屯區昌平路一段９５號之７,9,3703290021,24.1710201,120.6909358,OK
658,臺中市北屯區東山路一段２１８－１８號２樓,9,3703290030,24.1741267,120.7149494,OK
659,臺中市北屯區崇德二路二段１１６號,9,3703290049,24.1772694,120.6875266,OK
660,臺中市北屯區中清路二段４２１號１、２樓,9,3703290067,24.1806299,120.66674,OK
661,臺中市北屯區四平路３４８號１樓及２樓,9,3703290076,24.1921596,120.6814624,OK
662,臺中市北屯區梅川東路五段２９６號１樓及２樓,9,3703290085,24.1824628,120.6821482,OK
663,臺中市北屯區軍功路一段７３０號１樓及２樓,9,3703290094,24.1746654,120.7192581,OK
664,臺中市北屯區文心路四段６８８號１樓及２樓,9,3703290101,24.171661,120.687012,OK
665,臺中市北屯區昌平路一段９５－７號１樓,9,3703290110,24.1713423,120.6908687,OK
666,臺中市北屯區松竹路２段３４７號１樓及２樓,9,3703290129,24.1823622,120.6917111,OK
667,臺中市北屯區崇德路二段２６９號１樓及２樓,9,3703290138,24.1767407,120.6855807,OK
668,臺中市北屯區綏遠路二段３８號１樓,9,3703290147,24.1693686,120.6812049,OK
669,台中市中區中正路３１４號１樓,9,3717010013,24.1450112,120.6766668,OK
670,台中市中區南京里綠川西街１７９號,7,3717010022,24.1402601,120.6818181,OK
671,台中市中區三民路２段６０號１樓,9,3717010059,24.141703,120.679082,OK
672,台中市中區正音里民族路２１７號,7,3717010148,24.1402601,120.6818181,OK
673,台中市中區中政里中華路二段２２號,7,3717010228,24.1402601,120.6818181,OK
674,台中市中區重慶里市府路３０號１樓,7,3717010291,24.1402601,120.6818181,OK
675,台中市中區自由里民權路８０巷１號,9,3717010317,24.1378804,120.6799841,OK
676,台中市中區大墩里三民路二段１７巷２號,9,3717010326,24.1409253,120.6773957,OK
677,台中市中區南京里雙十路一段１號２Ｆ,9,3717010406,24.1401337,120.6858655,OK
678,台中市中區繼光里雙十路一段３５－１６號,9,3717010415,24.142362,120.685525,OK
679,台中市中區民權路100號2F-1,9,3717010433,24.1398119,120.678242,OK
680,台中市中區民族路１９６號１、２樓,9,3717011869,24.1428434,120.6760727,OK
681,台中市東區建成路６３９之２０號,9,3717020037,24.1319932,120.6913887,OK
682,台中市東區東明里精武路１５７號,7,3717020046,24.1427702,120.6944233,OK
683,台中市東區振興里立德街１２０號,9,3717020073,24.1327296,120.6872952,OK
684,台中市東區進化路９０號１樓,9,3717020082,24.1443575,120.6945334,OK
685,台中市東區翰第里大智路３１號,7,3717020108,24.1427702,120.6944233,OK
686,台中市東區東南里進化路２１６號,9,3717020171,24.1494059,120.6945696,OK
687,台中市東區精武東路１９４號,9,3717020215,24.1492479,120.709913,OK
688,臺中市東區十甲里十甲路４０３號１Ｆ,9,3717020279,24.1445712,120.7078906,OK
689,臺中市東區振興路１８５之１號,9,3717020288,24.1329035,120.6924275,OK
690,台中市東區東光園路１６３巷１號,9,3717020297,24.1284132,120.6949034,OK
691,臺中市東區力行路７０１號,0,3717020313,,,ZERO_RESULTS
692,台中市東區十甲里精武東路７０號,9,3717020331,24.14839,120.706799,OK
693,台中市東區練武里自由路３段１４７號１Ｆ,9,3717021427,24.142763,120.6917825,OK
694,台中市東區十甲路４３８號１Ｆ,9,3717021436,24.1441949,120.708776,OK
695,台中市東區進德路１２６號１樓、２樓,9,3717021481,24.1439666,120.6923375,OK
696,台中市東區十甲東路５７２號１樓,9,3717021507,24.1409505,120.7082414,OK
697,台中市東區富榮街５７號１樓,9,3717021516,24.1455794,120.6889218,OK
698,台中市東區大智路２７１號１樓.２７３號１樓,9,3717021534,24.13138,120.6904687,OK
699,臺中市東區振興路４１６號１樓,9,3717021561,24.1300035,120.7054802,OK
700,台中市西區中興里中美街２８２號,9,3717030015,24.1495227,120.6603662,OK
701,台中市西區吉龍里美村路一段６７６號一樓　,9,3717030024,24.1354286,120.6614734,OK
702,台中市西區安龍里民權路１８７號,9,3717030042,24.1456159,120.670727,OK
703,台中市西區公正里精誠路３８８號,9,3717030097,24.145944,120.6549,OK
704,台中市西區利民里四維街２４之４號,9,3717030104,24.1373144,120.6759683,OK
705,台中市西區忠明里美村路一段５６號１Ｆ,9,3717030113,24.1531259,120.66139,OK
706,台中市西區吉龍里五權西二街３２號,9,3717030122,24.1389497,120.663733,OK
707,台中市西區公館里南屯路一段６６之２號,9,3717030131,24.132302,120.665462,OK
708,台中市西區昇平里向上南路一段４７號１．２樓,9,3717030140,24.1459011,120.6599233,OK
709,台中市西區美村路一段２５８號,9,3717030159,24.1476599,120.6614925,OK
710,台中市西區靖龍里民權路２１１－４號,6,3717030186,24.1430604,120.6631289,OK
711,台中市西區廣民里自立街２３號,9,3717030195,24.1391437,120.6719384,OK
712,台中市西區忠誠里忠明南路５號,9,3717030202,24.156233,120.659392,OK
713,台中市西區中興里中美街２２８號,9,3717030266,24.1480038,120.6602802,OK
714,台中市西區土庫里五權一街６５－１號,9,3717030319,24.1391072,120.6612111,OK
715,台中市西區公民里全山路１６－２號,7,3717030355,24.138605,120.6681609,OK
716,台中市西區公正里精誠路１４０號,9,3717030373,24.152727,120.65491,OK
717,台中市西區吉龍里五權一街１８號,9,3717030382,24.1393387,120.6650604,OK
718,台中市西區公館里南屯路一段４８號,9,3717030408,24.1324709,120.666227,OK
719,台中市西區向上路一段７９巷３４號１樓,9,3717030417,24.1458289,120.664676,OK
720,台中市西區三民里三民一段１３３號,9,3717030426,24.134306,120.670791,OK
721,台中市西區東昇里大全街４號,9,3717030435,24.1356862,120.6706749,OK
722,台中市西區公正里精誠路２８５號,9,3717030462,24.1458002,120.6552952,OK
723,台中市西區公民里林森路１３６－２號,9,3717030471,24.139258,120.669267,OK
724,台中市西區東昇里大全街４９號之２　,9,3717030499,24.1346339,120.669976,OK
725,台中市西區三民里三民路一段１４９號３Ｆ－１,9,3717030551,24.1355377,120.6722283,OK
726,台中市西區公館里三民西路４７號,9,3717030560,24.1312171,120.6669117,OK
727,台中市西區安龍里五權路２－７４號,9,3717030588,24.140187,120.666161,OK
728,台中市西區柳川西路二段91號,9,3717030597,24.137517,120.667762,OK
729,台中市西區向上路一段２９３號１樓,9,3717030604,24.1466543,120.6581084,OK
730,台中市西區公正里東興路三段９２號,9,3717030668,24.14796,120.653219,OK
731,台中市西區大全街３４號,9,3717030677,24.1363159,120.6713322,OK
732,台中市西區公正路大業路２４號,8,3717030686,24.149039,120.6612834,OK
733,台中市西區明義街72號,9,3717030695,24.155842,120.659575,OK
734,台中市西區忠明里忠誠街４６１號一Ｆ,7,3717030702,24.1559188,120.6624101,OK
735,台中市西區忠明里美村路一段６４巷１３號,9,3717030711,24.1528605,120.6610199,OK
736,台中市西區五權西路１段１２０號１樓,9,3717030748,24.1403353,120.6608269,OK
737,台中市西區雲龍里模範街１２巷２號,6,3717030766,24.1430604,120.6631289,OK
738,台中市西區忠誠里太原路一段２０２號,9,3717030775,24.1626011,120.6613673,OK
739,台中市西區吉龍里忠明南路４１６號,9,3717030784,24.1348511,120.6571651,OK
740,台中市西區公正里公益路１８０號,9,3717030800,24.151057,120.657781,OK
741,台中市西區公正里精誠二十九街２５號１樓,9,3717030846,24.1434035,120.6558477,OK
742,台中市西區公館里三民西路１６５號,9,3717030864,24.1298318,120.6635534,OK
743,臺中市西區臺灣大道二段３７５號１１樓之５,9,3717030908,24.1542141,120.6643169,OK
744,台中市西區三民里林森路３０號,9,3717030917,24.135692,120.673288,OK
745,台中市西區公益里公正路２０８號,9,3717030953,24.149123,120.6595626,OK
746,台中市西區公正里向上南路一段２３７號,9,3717030980,24.144694,120.650526,OK
747,台中市西區向上南路一段１７８號,9,3717031003,24.145183,120.652644,OK
748,台中市西區公民里五廊街２９－４號,9,3717031012,24.1413506,120.6701826,OK
749,台中市西區三民路一段１２５－６號１樓、１２５－７號１、２樓,9,3717031030,24.1340982,120.6706226,OK
750,臺中市西區華美街１３６號１樓,9,3717031049,24.1445549,120.6588306,OK
751,臺中市西區中華路１段８５號,6,3717031067,24.1430604,120.6631289,OK
752,臺中市西區精誠路２２１之１號１Ｆ,9,3717031076,24.1474965,120.6553185,OK
753,臺中市西區東興路３段４８號１樓,9,3717031110,24.1458503,120.6530029,OK
754,臺中市西區自治街２５４號,9,3717031129,24.143464,120.6677179,OK
755,台中市西區存中街８號１．２Ｆ,9,3717031156,24.1417223,120.6606373,OK
756,台中市西區向上南路１段１０８．１１０號１樓,9,3717031165,24.145011,120.6565918,OK
757,台中市西區美村路一段３０號１０樓之１．１０樓之２,9,3717031218,24.154176,120.66154,OK
758,台中市西區忠誠里太原路一段３８號２樓,9,3717031307,24.1590464,120.6585886,OK
759,台中市西區向上路１段４２９號１樓,9,3717031316,24.1466246,120.6545525,OK
760,台中市西區土庫里五權西六街１７４．１７６號１樓,9,3717031325,24.135434,120.658694,OK
761,台中市西區公館里五權七街６號１樓,9,3717031352,24.1352156,120.665036,OK
762,台中市西區公民里五權西一街７３號１樓,9,3717031361,24.1369218,120.6643463,OK
763,台中市西區美村路１段７９３號１樓．２樓,9,3717032377,24.132353,120.66191,OK
764,台中市西區中興里美村路一段１５６號１樓,9,3717032386,24.1503975,120.6616577,OK
765,台中市西區吉龍里美村路１段６６７號１樓,9,3717032402,24.1357368,120.6617893,OK
766,台中市西區公正里忠明南路１６５號１．２Ｆ,9,3717032466,24.151239,120.65759,OK
767,台中市西區大業路７號１’２樓,9,3717032475,24.1534319,120.6547585,OK
768,台中市西區公民里金山路５６號１樓,9,3717032484,24.1398919,120.669117,OK
769,台中市西區美村路１段５３８號１樓,9,3717032500,24.1396132,120.6616748,OK
770,台中市西區美村路１段６０號１Ｆ,9,3717032519,24.153043,120.661389,OK
771,台中市西區東昇里樂群街２００號,9,3717032537,24.13609,120.669034,OK
772,台中市西區公益路３８９號,9,3717032582,24.1507871,120.6531625,OK
773,台中市西區五權西三街５１號１．２樓,9,3717032591,24.1383049,120.6631954,OK
774,台中市西區台中港路１段３４５號２０樓之１,9,3717032617,24.1562475,120.6601071,OK
775,台中市西區博館路１０９號１樓,9,3717032635,24.1562457,120.6654022,OK
776,台中市西區美村路一段７０１號一樓二樓,9,3717032644,24.1349227,120.6618212,OK
777,台中市西區英才路五○一號二樓,6,3717032653,24.1430604,120.6631289,OK
778,台中市西區向上南路1段211號1、2樓,9,3717032662,24.1448167,120.6511622,OK
779,台中市西區華美街２５９號１樓,9,3717032671,24.148805,120.658612,OK
780,台中市西區忠明南路３４７－１號１樓,9,3717032680,24.1437696,120.6574964,OK
781,台中市西區健行路１０３８號１、２樓,9,3717032715,24.1560599,120.6628416,OK
782,台中市西區公益路２５８號１、２樓,9,3717032724,24.151232,120.6547,OK
783,台中市西區公益路３４１－２號１樓,9,3717032742,24.1506519,120.655622,OK
784,台中市西區五權五街８２－９號１樓,9,3717032751,24.136783,120.661107,OK
785,台中市西區忠明南路３７１號１樓,9,3717032779,24.1427366,120.65758,OK
786,台中市西區忠仁街１７９號１樓,9,3717032797,24.1429374,120.670639,OK
787,台中市南區萬安里愛國街８８巷５２號,6,3717040011,24.1208445,120.6624117,OK
788,台中市南區民主里復興路三段２９２號,6,3717040020,24.1208445,120.6624117,OK
789,台中市南區國光里仁和路２２２號１樓,9,3717040039,24.126282,120.681938,OK
790,台中市南區城隍里忠孝路１２１號,9,3717040057,24.128602,120.679301,OK
791,台中市南區頂南里忠孝路１９４巷１７號,6,3717040084,24.1208445,120.6624117,OK
792,台中市南區南興里復興路三段５１５號,6,3717040119,24.1208445,120.6624117,OK
793,台中市南區高工路２５５號,9,3717040128,24.1137062,120.6641149,OK
794,台中市南區南門里台中路５１６號,9,3717040155,24.123377,120.683761,OK
795,台中市南區福平里復興路二段１７４號,9,3717040164,24.1271671,120.6662505,OK
796,臺中市南區文心南十路２５２號１樓,9,3717040182,24.1175905,120.6576568,OK
797,台中市南區美村路二段６９號,9,3717040208,24.129219,120.662288,OK
798,台中市南區江川里五權南路３０３號,9,3717040217,24.1227789,120.6698702,OK
799,台中市南區復興路三段２４６號,9,3717040235,24.1314843,120.6763557,OK
800,台中市南區南門里南門路３８號,9,3717040253,24.122592,120.682789,OK
801,台中市南區國光里仁和路２７５號,9,3717040262,24.126527,120.683549,OK
802,台中市南區和平里復興路二段２８號,9,3717040306,24.118068,120.6592888,OK
803,台中市南區樹義里復興路一段３９５－１號,9,3717040315,24.1158187,120.6557965,OK
804,台中市南區正義里復興路三段３８５號１Ｆ,9,3717040324,24.1326402,120.6787083,OK
805,台中市南區德義國光路２０６號１樓,9,3717040333,24.126161,120.67902,OK
806,台中市南區五權南路５１８號１樓,9,3717040342,24.1173548,120.6701906,OK
807,台中市南區正義里復興路三段４１５號,9,3717040351,24.1326402,120.6787083,OK
808,台中市南區福平里復興路二段１６４號之１,9,3717040360,24.1268196,120.6658678,OK
809,台中市南區復興路二段１３３之２號,9,3717040413,24.125358,120.66406,OK
810,台中市南區復興路２段１４９之５號１樓,9,3717040468,24.1264989,120.664779,OK
811,台中市南區美村南路１８１號,9,3717040477,24.115535,120.666646,OK
812,台中市南區樹義里復興路一段３０６號,9,3717040486,24.1137497,120.65339,OK
813,台中市南區西川里忠明南路７０３號,9,3717040495,24.128734,120.658234,OK
814,台中市仁和路２３２號,9,3717040511,24.126173,120.68225,OK
815,台中市南區西川里三民西路２６０號,9,3717040520,24.130337,120.660173,OK
816,台中市南區工學路２２號１樓,9,3717040539,24.1169882,120.666504,OK
817,台中市南區新榮里學府路２００號１樓,9,3717040548,24.129973,120.6736652,OK
818,台中市南區工學路１７號１Ｆ,9,3717040566,24.1167407,120.6666783,OK
819,台中市南區建成路１８４６號２．３樓,9,3717040575,24.1266168,120.6723166,OK
820,臺中市南區復興路三段２７２號,9,3717040619,24.131756,120.677222,OK
821,台中市南區永興里工學路２５號,9,3717040646,24.1167077,120.666514,OK
822,台中市南區五權南路６８７號１樓,9,3717040664,24.1132312,120.6701172,OK
823,台中市南區福平里美村路２段１８６號１.２樓,9,3717041689,24.1250849,120.6634093,OK
824,台中市南區頂南里台中路１６６號１樓,0,3717041705,,,ZERO_RESULTS
825,台中市南區建成路１７８５號１Ｆ及２Ｆ,9,3717041714,24.1262522,120.6708693,OK
826,台中市南區樹義里復興路１段３９１號１樓,9,3717041723,24.1157327,120.6556925,OK
827,台中市南區南興里台中路４６．４８號１樓,6,3717041732,24.1208445,120.6624117,OK
828,台中市南區新榮里學府路１５８號１．２樓,9,3717041741,24.129097,120.674225,OK
829,台中市南區高工路２５２－１號１及２樓,9,3717041769,24.1135628,120.6646248,OK
830,台中市南區國光路一○四號一樓,6,3717041778,24.1208445,120.6624117,OK
831,台中市南區台中路１５０號１樓,9,3717041803,24.1312296,120.6843283,OK
832,台中市南區美村南路１６５號１樓,9,3717041812,24.115975,120.666637,OK
833,台中市南區復興路一段５１９號１、２樓,9,3717041821,24.117886,120.658324,OK
834,台中市南區學府路５８號１樓、２樓及６０號１樓,9,3717041830,24.1250736,120.6752921,OK
835,台中市南區美村南路５２號１、２、３樓,9,3717041849,24.1201494,120.6668052,OK
836,臺中市南區南和路２１３號１樓,9,3717041867,24.1175958,120.6681341,OK
837,台中市北區錦祥街７４號,9,3717050017,24.1574684,120.6903278,OK
838,台中市北區中清路１段６１９號１樓,9,3717050026,24.1729025,120.6714775,OK
839,台中市北區新興里三民路三段８９巷３號,9,3717050062,24.1472043,120.682628,OK
840,台中市北區明德里忠明路１５９號,9,3717050071,24.1621369,120.663569,OK
841,台中市北區頂厝里永興街２２８號,9,3717050099,24.164691,120.682513,OK
842,台中市北區建興里永興街１３２號,9,3717050106,24.1620292,120.682429,OK
843,台中市北區健行里大雅路２３１－１號,9,3717050124,24.161998,120.67457,OK
844,台中市北區賴厝里進化北路３７８－３８號,9,3717050133,24.1633387,120.6784432,OK
845,台中市北區淡溝里健行路８２７號,9,3717050151,24.1589459,120.670831,OK
846,台中市北區淡溝里民權路３５５號,9,3717050160,24.1563815,120.6703234,OK
847,台中市北區中清路一段７２６巷３２號１樓,9,3717050179,24.1528414,120.6773758,OK
848,台中市北區建興里學士路１７６號,9,3717050188,24.159532,120.681135,OK
849,台中市北區健行民權路４９３號,9,3717050204,24.160056,120.670233,OK
850,台中市北區明德里西屯路一段４１５號,9,3717050222,24.1622479,120.663746,OK
851,台中市北區賴厝里進化北路３７８－１６號,9,3717050259,24.1633533,120.679407,OK
852,台中市北區錦村里進化路３２５號,9,3717050268,24.15331,120.694083,OK
853,台中市北區賴興里北平路二段１０１號,9,3717050277,24.171521,120.676565,OK
854,台中市北區建興里德化街３２５號,9,3717050286,24.1615201,120.6819198,OK
855,台中市北區明德里漢口路３段１４４號,9,3717050357,24.166843,120.6711369,OK
856,台中市北區中清路一段５５５號１樓,9,3717050400,24.1716534,120.6717606,OK
857,台中市北區中湖里中華路二段１１５號,0,3717050428,,,ZERO_RESULTS
858,台中市北區一中街２９號,9,3717050437,24.1473239,120.6841191,OK
859,台中市北區建興里崇德路一段１３９號,9,3717050446,24.16125,120.6848745,OK
860,台中市北區金龍里三民路三段２５３－３號,9,3717050473,24.156002,120.68722,OK
861,台中市北區新北里錦南街２７號,9,3717050482,24.154309,120.686459,OK
862,台中市北區明德里漢口路三段２０８號,9,3717050508,24.16688,120.6730584,OK
863,台中市北區賴里進化北路３７８－５號,9,3717050526,24.1633335,120.6801552,OK
864,台中市北區健行路６２８號,9,3717050562,24.1593651,120.6754724,OK
865,台中市北區樂英里錦南街２０之１號,9,3717050571,24.1540494,120.6884253,OK
866,台中市北區進化路３８１號１樓,9,3717050580,24.1544025,120.6941573,OK
867,台中市北區臺灣大道一段６７９號１樓,9,3717050624,24.147447,120.6738717,OK
868,台中市北區育德里健行路４７９號,9,3717050633,24.159005,120.678064,OK
869,台中市北區錦祥里進化路４８３號,9,3717050642,24.157228,120.6940454,OK
870,台中市北區金龍里三民路三段３０３號,9,3717050660,24.156989,120.688435,OK
871,台中市北區賴村里大德街１５０號,9,3717050679,24.1607942,120.6786486,OK
872,台中市北區中清路一段５７０號１，２樓,9,3717050688,24.1712016,120.6720367,OK
873,台中市北區英才路１７３號１樓,9,3717050759,24.1555979,120.6758779,OK
874,台中市北區五常里學士路８３號３樓,9,3717050777,24.1551467,120.6816231,OK
875,台中市北區中達村英才路１９０號,9,3717050786,24.1559871,120.6745092,OK
876,台中市北區淡溝里英才路３４２號,9,3717050820,24.1559004,120.6700429,OK
877,台中市北區長青里陝西路６９號,9,3717050857,24.1704722,120.6680957,OK
878,台中市北區賴興里北平路二段４１號,9,3717050884,24.171789,120.673539,OK
879,台中市北區新北里太平路４０之１號,9,3717050928,24.1483238,120.6841207,OK
880,台中市北區文昌東二街6號,9,3717050937,24.1728379,120.6762983,OK
881,台中市北區長青里漢口路三段９８號１Ｆ,9,3717050964,24.166691,120.67,OK
882,台中市北區賴明里漢口路四段６０之２號１Ｆ,9,3717050982,24.166654,120.675013,OK
883,台中市北區明德里忠明路３２９號,9,3717051014,24.163163,120.666677,OK
884,台中市北區漢口路４段1８０之２號１樓,9,3717051069,24.166885,120.679597,OK
885,台中市北區進化路５７０巷７號１Ｆ,9,3717051103,24.15923,120.695073,OK
886,台中市北區武順里精武路２７２號３樓,6,3717051274,24.1629451,120.674583,OK
887,台中市北區梅川西路４段１５１號１樓,9,3717051354,24.169207,120.678703,OK
888,台中市北區進化北路２９９號,9,3717051390,24.1629354,120.6822081,OK
889,台中市北區民權路 ５１９號１樓,9,3717051416,24.160617,120.6703506,OK
890,台中市北區公園路１５８號,9,3717051434,24.150236,120.677963,OK
891,台中市北區東光東街１３號,9,3717051443,24.1540309,120.6997893,OK
892,台中市北區博館東街１７號,9,3717051461,24.1546631,120.6662024,OK
893,台中市北區國泰街１１５號,9,3717051498,24.1598347,120.6948319,OK
894,台中市北區淡溝里育德路２２０號１．２樓,9,3717051514,24.157711,120.669532,OK
895,台中市北區長青里陝西路２８號１樓,9,3717051523,24.168037,120.6685,OK
896,台中市北區中達里英才路１９３號１樓,9,3717051569,24.1555586,120.6748713,OK
897,台中市北區賴明里漢口路４段３２７號１樓,9,3717051578,24.167304,120.681472,OK
898,台中市北區英才路３８６之３號１樓,9,3717051630,24.1547789,120.6683122,OK
899,台中市北區太原路１段５３０號１．２樓,9,3717052664,24.1648246,120.6732011,OK
900,台中市北區錦洲里進化路５５４號１．２Ｆ,9,3717052682,24.1587573,120.6946877,OK
901,台中市北區賴厝里漢口路４段２６８號１．２樓,9,3717052708,24.166901,120.68225,OK
902,台中市北區賴興里北平路2段73號1F,9,3717052717,24.1716548,120.6745584,OK
903,台中市北區中正里原子街２２４、２２５號１Ｆ,6,3717052762,24.1629451,120.674583,OK
904,台中市北區錦和里太平路６２號,6,3717052815,24.1629451,120.674583,OK
905,台中市北區大雅路２２９號１，２樓,9,3717052860,24.1614829,120.6747713,OK
906,台中市北區進化路４７９號,9,3717052888,24.1571461,120.694046,OK
907,台中市北區中清路１段４３１號１樓,9,3717052897,24.1671693,120.6730892,OK
908,台中市北區中清路一段８３０號２樓,9,3717052922,24.1733757,120.6714229,OK
909,台中市北區英才路２５８號１、２樓,9,3717052959,24.1558535,120.672388,OK
910,台中市北區進化北路１７７－６號１、２樓,9,3717052968,24.162895,120.685479,OK
911,台中市北區天祥街３６號１樓,9,3717052977,24.1609438,120.6956876,OK
912,台中市北區進化路３９９、３４１號１樓,9,3717052986,24.1544753,120.6943187,OK
913,台中市北區三民路３段７０號１樓,9,3717052995,24.147897,120.6835417,OK
914,台中市北區三民路３段２１９號１樓,9,3717053040,24.1539889,120.6856633,OK
915,台中市西屯區逢甲里西屯路二段２８２之７號,9,3717060022,24.176323,120.643846,OK
916,台中市西屯區西安里西屯路二段２９８－１１號,9,3717060077,24.16993,120.647493,OK
917,台中市西屯區西屯路二段２８２－１號,9,3717060086,24.1761409,120.644024,OK
918,台中市西屯區何安里西屯路二段９５－２８號,9,3717060111,24.1654802,120.655509,OK
919,台中市西屯區臺灣大道二段６２２號１樓,9,3717060139,24.1587209,120.6575214,OK
920,台中市西屯區西安里西屯路二段２９１－４號,9,3717060166,24.1771184,120.6427046,OK
921,台中市西屯區何厝里漢口路二段５６號,9,3717060175,24.1636349,120.658829,OK
922,台中市西屯區何德里西屯路二段１０－５號,9,3717060184,24.1636964,120.6625684,OK
923,台中市西屯區何源里漢口路二段１０８號之５,9,3717060200,24.1647033,120.6609443,OK
924,台中市西屯區何南里大洲街９３號,9,3717060219,24.159496,120.651223,OK
925,台中市西屯區何厝里何厝東二街８５號,9,3717060228,24.1624782,120.6563429,OK
926,台中市西屯區福安里中工三路８３號,9,3717060246,24.1788189,120.6190124,OK
927,台中市西屯區西屯路３段１５９之５３號１．２樓,9,3717060317,24.1879826,120.6180593,OK
928,台中市西屯區西屯路２段２９５－２０號１．２．３樓,9,3717060362,24.1780013,120.6417103,OK
929,台中市西屯區何德里重慶路２５０號,9,3717060371,24.169583,120.6609396,OK
930,台中市西屯區西屯路２段２７３之１號,9,3717060415,24.1749959,120.6441242,OK
931,台中市西屯區漢口路二段２１號,9,3717060424,24.1636754,120.6583077,OK
932,台中市西屯區何厝里漢口路二段８號,9,3717060433,24.1632208,120.6575769,OK
933,台中市西屯區西屯路二段７７號１樓,9,3717060451,24.1650104,120.6573178,OK
934,台中市西屯區大河里河南路二段２８號,9,3717060460,24.1729818,120.6606565,OK
935,台中市西屯區精明一街５５號,9,3717060497,24.1560355,120.6557232,OK
936,台中市西屯區何南里大墩路９９２號１樓,9,3717060504,24.159133,120.65221,OK
937,台中市西屯區西平里逢甲路１６２－２．１６２３號１．２Ｆ,9,3717060540,24.1780834,120.6424136,OK
938,台中市西屯區福安里西屯路三段１５９－１１巷２號,9,3717060568,24.1873206,120.6192549,OK
939,台中市西屯區大福里長安路二段２１５號,9,3717060577,24.1744472,120.6659216,OK
940,台中市西屯區何安里青海路一段９６之２號,9,3717060586,24.164804,120.654824,OK
941,台中市西屯區何南里東興路三段４０２號,9,3717060639,24.1581816,120.6556174,OK
942,台中市西屯區太原路一段２１３號,9,3717060755,24.1633442,120.6619572,OK
943,台中市西屯區中工三路６３號１樓,9,3717060773,24.1792976,120.6190515,OK
944,台中市西屯區西屯路２段２５１-２０號１樓,9,3717060817,24.1716148,120.6460871,OK
945,台中市西屯區中工三路１４６號,9,3717060835,24.1776779,120.618139,OK
946,台中市西屯區何仁里重慶路２４１號,9,3717060862,24.1684732,120.6585015,OK
947,台中市西屯區東興路三段３８３號１樓,9,3717060880,24.1575337,120.6548196,OK
948,台中市西屯區福星路５７４號,9,3717060899,24.1750675,120.6463556,OK
949,台中市西屯區漢口路二段１１１號,9,3717060924,24.164985,120.660887,OK
950,台中市西屯區何南里大隆路６４號２樓,9,3717060933,24.1565324,120.6529217,OK
951,台中市西屯區青海路二段２０９２號,4,3717060942,24.1769764,120.6424333,OK
952,台中市西屯區西屯路三段159之58號1F,9,3717060988,24.1881525,120.6177053,OK
953,台中市西屯區西平里逢甲路１０８號,9,3717060997,24.1787479,120.6436128,OK
954,台中市西屯區河南路二段３３０號１．２Ｆ,9,3717061065,24.1740909,120.647526,OK
955,台中市西屯區何安里西屯路二段９５３５號,7,3717061083,24.1645124,120.6537833,OK
956,台中市西屯區大墩十九街８９號,9,3717061127,24.1570724,120.6540263,OK
957,台中市西屯區上石里上仁街９５號,9,3717061145,24.170921,120.6411561,OK
958,台中市西屯區臺灣大道二段７１５號１０Ｆ－１,9,3717061172,24.159044,120.6551211,OK
959,台中市青海路２段２９６號,9,3717061181,24.173321,120.641687,OK
960,台中西屯區福中一街３９號１樓及２樓,9,3717061207,24.1822075,120.6160582,OK
961,台中市西屯區精明路３６號１樓,9,3717061252,24.15764,120.6563799,OK
962,台中市西屯區何厝里大墩路９２７號,9,3717062259,24.158102,120.651135,OK
963,台中市西屯區福安里工業一路５４３號,7,3717062277,24.1817634,120.6271805,OK
964,台中市西屯區西平里文華路１３８巷１０號,9,3717062286,24.1827565,120.6466343,OK
965,台中市西屯區福星路４０３號１２樓,4,3717062311,24.1769764,120.6424333,OK
966,台中市西屯區福安里福科路４１５號１．２樓,9,3717062320,24.183713,120.620673,OK
967,台中市西屯區大墩十八街七十號一樓,9,3717062375,24.156863,120.650066,OK
968,台中市西屯區何安里甘肅路一段１９０號,9,3717062384,24.168059,120.657512,OK
969,台中市西屯區臺灣大道二段６８９號６Ｆ,9,3717062393,24.1589029,120.655686,OK
970,台中市西屯區西屯路２段１０３-６號１樓,9,3717062400,24.1666983,120.6515141,OK
971,台中市西屯區上石里河南路２段４５２號,9,3717062437,24.171893,120.644571,OK
972,台中市西屯區中清西二街８２號１樓,9,3717062464,24.1751079,120.66719,OK
973,台中市西屯區福星路４４０號１．２.３樓,9,3717062491,24.1790271,120.6449305,OK
974,台中市西屯區福科路２１０號１．２樓,9,3717062508,24.182501,120.624607,OK
975,台中市西屯區西安街２０７號１樓,9,3717062517,24.1820092,120.6458846,OK
976,台中市西屯區西屯路３段１６６之３６號１．２樓,9,3717062535,24.188662,120.616739,OK
977,台中市西屯區福林里福順路三三一號一樓,9,3717062562,24.1832559,120.618323,OK
978,台中市西屯區永福路173號1樓,9,3717062580,24.186097,120.621454,OK
979,台中市西屯區青海路二段273號1樓,9,3717062599,24.17261,120.642094,OK
980,台中市西屯區河南路２段２６０號１、２樓,9,3717062642,24.17545,120.64944,OK
981,台中市西屯區永福路１７０號１樓,9,3717062651,24.1853758,120.6213697,OK
982,台中市西屯區西屯路２段２７２－１５號１樓,9,3717062679,24.1752465,120.6443423,OK
983,台中市西屯區黎明路３段３７９號１樓及２樓,9,3717062688,24.181834,120.638438,OK
984,台中市西屯區西屯路２段２５８號１、２樓,9,3717062704,24.1719961,120.6461708,OK
985,台中市西屯區福星路６４５號１、２樓,9,3717062713,24.1744932,120.6477327,OK
986,台中市西屯區永福路１７０號１樓,9,3717062722,24.1853758,120.6213697,OK
987,台中市西屯區青海路１段６５之１號１樓,9,3717062740,24.1643227,120.6548788,OK
988,台中市西屯區惠中路１段１２０號１、２樓,9,3717062768,24.1602511,120.6435901,OK
989,台中市西屯區寧夏路２０８號１、２樓,9,3717062802,24.1699342,120.6596055,OK
990,台中市西屯區河南路２段３５６號１－２樓,9,3717062815,24.1737709,120.647093,OK
991,台中市西屯區大隆路５８號１樓,9,3717062839,24.1565461,120.6528386,OK
992,台中市西屯區政和路１５２號１、２樓,9,3717062848,24.156828,120.6407211,OK
993,台中市西屯區漢口路２段３０６號１樓,9,3717062857,24.1665791,120.6646058,OK
994,台中市西屯區福安路７６號１樓,9,3717062866,24.1813069,120.6223305,OK
995,台中市西屯區西屯路３段１６９－１號１、２樓,9,3717062875,24.188483,120.616495,OK
996,台中市西屯區大墩１８街１６９號１、２樓,9,3717062884,24.1580192,120.6525026,OK
997,台中市西屯區臺灣大道４段１１５０號１樓,9,3717062893,24.184521,120.6128956,OK
998,臺中市西屯區華美西街二段３１３號１樓,9,3717062900,24.170426,120.666334,OK
999,台中市南屯區南屯里南屯路二段７０８１號,7,3717070046,24.140698,120.638845,OK
1000,台中市南屯區田心里五權西路二段４１６號,9,3717070082,24.1404028,120.6448118,OK
1001,台中市南屯區南屯里黎明路一段１００６號,9,3717070108,24.138211,120.637797,OK
1002,台中市南屯區東興路２段６０號,9,3717070117,24.1376439,120.6531629,OK
1003,台中市南屯區大同里大墩七街１２４號１Ｆ,9,3717070153,24.14397,120.6520319,OK
1004,台中市南屯區溝墘里大墩路４６１號１．２樓,9,3717070162,24.1464821,120.6497526,OK
1005,台中市南屯區中和里黎明路一段１６５號,9,3717070171,24.1158601,120.6265792,OK
1006,台中市南屯區文心南路 １５號１樓,9,3717070199,24.1364417,120.6461908,OK
1007,台中市南屯區黎光里干城街２０２巷１弄２號,4,3717070233,24.1471183,120.6084832,OK
1008,台中市南屯區南屯路二段６６３號１樓,9,3717070242,24.1401689,120.637176,OK
1009,台中市南屯區南屯里黎明路一段１０９６號,9,3717070297,24.140717,120.638551,OK
1010,台中市南屯區南屯里南屯路二段６１６號,9,3717070304,24.1386559,120.640804,OK
1011,台中市南屯區大同里大墩二街７５號,9,3717070313,24.1387805,120.6515076,OK
1012,台中市南屯區春社里永春南路７８號１樓,9,3717070377,24.1386789,120.611016,OK
1013,台中市南屯區黎明路１段７６號１樓,9,3717070439,24.1138215,120.626023,OK
1014,台中市南屯區南屯路二段２０５號,9,3717070448,24.1366516,120.649564,OK
1015,台中市南屯區向心南路９２１號,9,3717070466,24.1357549,120.6437,OK
1016,台中市南屯區京展街２２５號,9,3717070831,24.13639,120.64347,OK
1017,台中市南屯區溝墘里大業路２０７號１樓,9,3717070840,24.15335,120.650115,OK
1018,台中市南屯區永春東路１０５７號２．３．４樓,9,3717070859,24.1353627,120.637418,OK
1019,台中市南屯區大同里南屯路二段１８５號,9,3717070868,24.1362575,120.6501339,OK
1020,台中市南屯區黎明路一段１５２號,9,3717070877,24.1155005,120.6266926,OK
1021,台中市南屯區溝墘里大業路１２３號,9,3717070886,24.153425,120.651994,OK
1022,台中市南屯區南屯路二段２９６號,9,3717070902,24.1372414,120.6479532,OK
1023,台中市南屯區田心里文心南二路４０８號,9,3717070966,24.136155,120.644343,OK
1024,台中市南屯區大墩路７９３號２樓及７９５號２樓,9,3717070984,24.1544951,120.6494843,OK
1025,台中市南屯區三厝里黎明路二段３０３號,9,3717070993,24.1490976,120.6355039,OK
1026,台中市南屯區黎光里干城街２７５號１樓,4,3717071016,24.1471183,120.6084832,OK
1027,台中市南屯區南屯里黎明路一段１０７５號,9,3717071043,24.139047,120.637587,OK
1028,台中巿南屯區黎明路二段１８８號,9,3717071052,24.146552,120.636458,OK
1029,台中市南屯區南屯里黎明路一段１１１８號,9,3717071089,24.1410089,120.6384506,OK
1030,台中市南屯區永春東路１０２８號１樓,9,3717071098,24.1356999,120.6371416,OK
1031,台中市南屯區永春南路３１號１、２樓,9,3717071105,24.13837,120.612818,OK
1032,台中市南屯區黎明路２段４３０號,9,3717071114,24.1520979,120.635326,OK
1033,台中市南屯區黎明路２段１８１號,9,3717071123,24.146397,120.636131,OK
1034,台中市南屯區公益路２段１５２號１樓,9,3717071141,24.1510957,120.6480654,OK
1035,台中市南屯區東興路２段３４１號２樓,9,3717071169,24.1444903,120.6528493,OK
1036,台中市南屯區溝墘里東興路３段１７５號,9,3717072200,24.1514976,120.6526507,OK
1037,台中市南屯區三厝里河南路４段３９９１號１樓,7,3717072219,24.1462376,120.6336519,OK
1038,台中市南屯區三厝里黎明路２段１５０號,9,3717072228,24.1457427,120.636733,OK
1039,台中市南屯區溝墘里大墩路８８０．８８２號１樓．地下１樓,0,3717072246,,,ZERO_RESULTS
1040,台中市南屯區南屯里黎明路一段１１３７號,9,3717072308,24.1405389,120.638212,OK
1041,台中市南屯區南屯路２段１８６號１Ｆ,9,3717072317,24.1366633,120.6504349,OK
1042,台中市南屯區黎明路２段３６５號１．２樓,9,3717072335,24.150552,120.634851,OK
1043,台中市南屯區河南路４段３８２號１、２樓,9,3717072362,24.1520437,120.637046,OK
1044,台中市南屯區大業路５９２號１樓、２樓,9,3717072371,24.1538,120.6354571,OK
1045,台中市南屯區河南路４段４５１號１樓,9,3717072380,24.1485309,120.638089,OK
1046,台中市南屯區公益路２段６０５號１．２號,9,3717072406,24.1510083,120.6332518,OK
1047,台中市南屯區黎明路二段３１９號１樓,9,3717072424,24.149567,120.635295,OK
1048,台中市南屯區文心南二路１８２號１樓,9,3717072433,24.1361559,120.646973,OK
1049,台中市南屯區大墩路256號1、2樓,9,3717072460,24.1430864,120.6500375,OK
1050,台中市南屯區惠中路３段３３５號１樓及２樓,9,3717072497,24.143274,120.6407256,OK
1051,台中市南屯區南屯路２段３３號１.２樓,9,3717072504,24.1355109,120.653479,OK
1052,台中市南屯區大業路１９３號１、２樓,9,3717072513,24.153351,120.650426,OK
1053,台中市南屯區向心南路９０８號１．２．３樓,9,3717072522,24.1354776,120.6441125,OK
1054,台中市南屯區干城街２７９號１樓,9,3717072531,24.1524249,120.633084,OK
1055,台中市南屯區大業路５８６號１、２樓,9,3717072540,24.1538952,120.6347855,OK
1056,台中市南屯區大墩路８００號１、２樓,9,3717072559,24.154471,120.650135,OK
1057,台中市南屯區大墩四街３１９號１樓,9,3717072568,24.1409542,120.6461779,OK
1058,台中市南屯區向心南路７２０．７２２號１樓,9,3717072577,24.1315219,120.644117,OK
1059,台中市南屯區黎明路２段３５８號１樓,9,3717072586,24.150342,120.635714,OK
1060,台中市南屯區大墩十四街２９６號２樓,9,3717072595,24.15244,120.647703,OK
1061,台中市南屯區東興路二段１８３號１樓,9,3717072611,24.1408775,120.6529129,OK
1062,台中市南屯區文心路１段３６９號１樓,9,3717072639,24.148065,120.646432,OK
1063,台中市南屯區大業路３２４號１、２樓,9,3717072648,24.153839,120.647331,OK
1064,台中市南屯區向上路５段 ８號１、２樓 ,9,3717072657,24.1479365,120.6152938,OK
1065,臺中市南屯區大墩十街１９７號１樓,9,3717072684,24.147771,120.6494421,OK
1066,臺中市南屯區河南路四段１９４號２樓,9,3717072693,24.1553809,120.6362977,OK
1067,台中市北屯區大連路二段２２８號,9,3717080024,24.175517,120.688835,OK
1068,台中市北屯區中清路２段５２號,9,3717080060,24.1749295,120.671159,OK
1069,台中市北屯區平順里昌平路一段１３１號,9,3717080088,24.1758399,120.690116,OK
1070,台中市北屯區三光里北屯路２２２之１號１樓,9,3717080104,24.168206,120.696681,OK
1071,台中市北屯區松茂里松竹路二段１４２號,9,3717080113,24.183331,120.697605,OK
1072,台中市北屯區平安里崇德路一段５４８之１號　,9,3717080122,24.167099,120.68545,OK
1073,台中市北屯區北屯里進化北路５５－４號,9,3717080131,24.1627181,120.6902665,OK
1074,台中市北屯區北京里北屯路７９號,9,3717080168,24.1618379,120.6922192,OK
1075,台中市北屯區松竹路２段２３９號１樓,9,3717080177,24.1828979,120.693999,OK
1076,台中市北屯區水湳里中清路１５號,9,3717080186,24.175816,120.670161,OK
1077,台中市北屯區水湳路173號,9,3717080195,24.1921417,120.6822103,OK
1078,台中市北屯區中清路２段３９５號１樓,9,3717080202,24.1806299,120.66674,OK
1079,台中市北屯區平田里旅順路二段２１１號,9,3717080211,24.1738446,120.6930435,OK
1080,台中市北屯區北屯里北屯路３２－２號,9,3717080239,24.161803,120.692912,OK
1081,台中市北屯區平德里北平路三段１２８號,9,3717080248,24.1708749,120.683135,OK
1082,台中市北屯區和順路４２８號１樓,9,3717080257,24.177168,120.722705,OK
1083,台中市北屯區東山路１段１４３之２號１樓,9,3717080266,24.1696939,120.703962,OK
1084,台中市北屯區仁和里昌平路二段４６號,9,3717080284,24.1916374,120.6833089,OK
1085,台中市北屯區三光里北屯路２１５號,9,3717080293,24.1646972,120.6938721,OK
1086,台中市北屯區平德里崇德路二段４１號,9,3717080346,24.169846,120.684891,OK
1087,台中市北屯區安里青島路四段１３０號,9,3717080382,24.167831,120.688545,OK
1088,台中市北屯區崇興路一段八八號,9,3717080391,24.1659459,120.6903675,OK
1089,台中市北屯區水景里東山路一段１８９－９號,9,3717080417,24.1708878,120.708842,OK
1090,台中市北屯區平田里北平路四段１０６號,9,3717080453,24.1702639,120.692134,OK
1091,台中市北屯區水湳里瀋陽路一段２號,9,3717080462,24.175761,120.672989,OK
1092,台中市北屯區平安里北平路四段２－１號附１,9,3717080480,24.170759,120.686009,OK
1093,台中市北屯區軍功里東山路一段２２５號,9,3717080499,24.174499,120.7151968,OK
1094,台中市北屯區中清路２段２９８號１樓,9,3717080515,24.1782866,120.6686877,OK
1095,台中市北屯區三光里北屯路２０４－２號,9,3717080524,24.167008,120.695892,OK
1096,台中市北屯區松竹里昌平路二段５－２５號２Ｆ,9,3717080560,24.1796123,120.6901106,OK
1097,台中市北屯區平安里天津路四段８９號,9,3717080604,24.169334,120.688514,OK
1098,台中市北屯區平順里昌平路一段３２４號,9,3717080631,24.1735679,120.690758,OK
1099,台中市北屯區平田里興安路二段６８號,9,3717080640,24.1766615,120.6949056,OK
1100,台中市北屯區平順里昌平路一段３５６號１Ｆ,9,3717080659,24.1743559,120.690718,OK
1101,台中市北屯區松竹路８９號,9,3717080668,24.1816469,120.683087,OK
1102,台中市北屯區北平路３段５１號１樓及２樓,9,3717080686,24.1712447,120.6807984,OK
1103,台中市北屯區平順里昌平路一段３６８號,9,3717080720,24.174708,120.690638,OK
1104,台中市北屯區三光里九龍街１０４號,9,3717080739,24.1672443,120.6968453,OK
1105,台中市北屯區敦化路１段４８８號１樓,9,3717080748,24.1882001,120.6690191,OK
1106,台中市北屯區綏遠路二段２０７－２號,9,3717080784,24.174574,120.681731,OK
1107,臺中市北屯區東山路一段２０６號,9,3717080800,24.1725057,120.7123122,OK
1108,臺中市北屯區平田里大連路三段１７９號,9,3717080828,24.1743671,120.696044,OK
1109,台中市北屯區昌平路２段２３８號１樓,3,3717080837,24.1815237,120.6861019,OK
1110,台中市北屯區東山路一段１４０巷１３號,9,3717080855,24.1690007,120.7032071,OK
1111,台中市北屯區北屯路２５８之１號,9,3717080917,24.1707001,120.6982088,OK
1112,台中市北屯區太原路三段１２９號,9,3717080926,24.1650516,120.6896072,OK
1113,台中市北屯區東山路一段２６０號,9,3717080944,24.1756822,120.7187497,OK
1114,台中市北屯區和平里東山路１段３６９－３號,9,3717080962,24.1763013,120.7252365,OK
1115,台中市北屯區昌平路一段８１號１樓及２樓,9,3717081030,24.167669,120.692768,OK
1116,台中市北屯區平德里青島路三段１３９號,9,3717081067,24.168613,120.682765,OK
1117,台中市北屯區興安路１段２８０號１樓,9,3717081085,24.1730141,120.6945744,OK
1118,台中市北屯區軍功里軍功路一段633號,9,3717081101,24.1753825,120.7190542,OK
1119,台中市北屯區大連路一段９６號,9,3717081110,24.176508,120.674085,OK
1120,台中市北屯區松竹路２段２０６號１Ｆ,9,3717081129,24.183502,120.694585,OK
1121,台中市北屯區東山路一段２１６２３號２樓,3,3717081147,24.1815237,120.6861019,OK
1122,台中市北屯區中清路２段５４１號１樓 ,9,3717081156,24.180966,120.6667142,OK
1123,台中市北屯區興安路二段９號,9,3717081174,24.175203,120.694351,OK
1124,台中市北屯區松茂里松竹路２段３６０號,9,3717081192,24.182494,120.690146,OK
1125,台中市北屯區敦化路一段５８５號１樓,9,3717081218,24.1895419,120.6716582,OK
1126,台中市北屯區中清路４９６號１樓,9,3717082288,24.1832933,120.6653387,OK
1127,台中市北屯區中清路２段１３５號１樓,9,3717082297,24.1884902,120.6623412,OK
1128,台中市北屯區北屯里青島路４段２１７１號,8,3717082304,24.1663521,120.6922397,OK
1129,台中市北屯區平田里興安路２段７２號,9,3717082322,24.1768184,120.6950055,OK
1130,台中市北屯區平安里崇德路１段５８６２號,8,3717082331,24.1692177,120.6868493,OK
1131,台中市北屯區大連路２段２４７號１樓,9,3717082340,24.1757635,120.6890791,OK
1132,台中市北屯區文心路４段６６７號１樓,9,3717082359,24.1722,120.687481,OK
1133,台中市北屯區四平路４６１號１．２樓,9,3717082368,24.1914552,120.6810483,OK
1134,台中市北屯區軍功路２段８８號,9,3717082395,24.177449,120.719609,OK
1135,台中市北屯區大鵬路２４號１、２樓,9,3717082411,24.1783268,120.6673372,OK
1136,台中市北屯區崇德路２段１０號１樓,9,3717082420,24.16865,120.685517,OK
1137,台中市北屯區昌平路１段１０７號１.２樓,9,3717082439,24.1741339,120.690242,OK
1138,臺中市北屯區瀋陽路２段１８１號１樓,9,3717082466,24.1734622,120.6847655,OK
1139,台中市北屯區崇德路一段５６０號１樓,9,3717082475,24.16743,120.685359,OK
1140,台中市北屯區同榮路二三○號一樓,3,3717082500,24.1815237,120.6861019,OK
1141,台中市北屯區崇德路二段三○三號一、二樓,3,3717082528,24.1815237,120.6861019,OK
1142,台中市北屯區文心路四段八八二號一樓、二樓,9,3717082537,24.1711027,120.692612,OK
1143,台中市北屯區文心路四段822號1樓,9,3717082555,24.171241,120.690739,OK
1144,台中市北屯區文心路四段４８２號１樓,9,3717082582,24.1719969,120.683015,OK
1145,台中市北屯區北屯路４３９－５號１樓,9,3717082591,24.1788091,120.7003506,OK
1146,台中市北屯區旅順路１段９３－６號１樓、９３－１１號１樓,9,3717082617,24.175257,120.679399,OK
1147,台中市北屯區崇德路２段４５５號１樓、２樓,9,3717082626,24.1810339,120.685881,OK
1148,台中市北屯區文心路４段９９７、９９９號１、２樓,9,3717082635,24.1706487,120.6973303,OK
1149,台中市北屯區綏遠路２段２６３號１、２樓,9,3717082644,24.176044,120.682158,OK
1150,台中市北屯區綏遠路２段１號１樓３號１樓,9,3717082653,24.168694,120.680961,OK
1151,台中市北屯區四平路４１、４３號１樓,9,3717082662,24.1789359,120.67079,OK
1152,台中市北屯區北屯路４０９之２１號１樓,9,3717082680,24.174414,120.697502,OK
1153,台中市北屯區崇德１０路１段５２９號１、２樓,9,3717082706,24.1881542,120.6825395,OK
1154,台中市北屯區北屯路４４１－１１號１樓,9,3717082715,24.1801397,120.70096,OK
1155,台中市北屯區熱河路２段１８號１樓,9,3717082724,24.169071,120.6874,OK
1156,台中市北屯區昌平路２段８之５號１樓,9,3717082733,24.1796363,120.6903744,OK
1157,台中市北屯區軍功路１段７５６號１樓,9,3717082742,24.17514,120.7191448,OK
1158,台中市北屯區昌平路２段３－１８號１、２樓,9,3717082751,24.178502,120.690409,OK
1159,台中市北屯區北屯路２００之１號１樓,9,3717082760,24.1668273,120.6956626,OK
1160,台中市北屯區東山路一段３００號１樓及２樓,9,3717082779,24.1759972,120.72129,OK
1161,台中市北屯區天津路３段１００號１樓及２樓,9,3717082797,24.1694745,120.6823125,OK
1162,台中市北屯區天津路３段１６３號１樓,9,3717082804,24.1697139,120.683897,OK
1163,台中市北屯區北屯路２６９號１樓,9,3717082813,24.166237,120.694705,OK
1164,台中市北屯區中清路二段６９８號１、２樓,9,3717082822,24.1849388,120.6643789,OK
1165,台中市北屯區東山路一段３６７-２４號１樓,9,3717082831,24.1762886,120.7250242,OK
1166,臺中市北屯區松竹路２段３０３號３樓,9,3717082840,24.1827621,120.6928261,OK
1167,台中市豐原區陽明里府前街６１－７號,9,3736010060,24.2495121,120.7184175,OK
1168,臺中市豐原區中正路３６１號１樓,9,3736010088,24.250688,120.713739,OK
1169,台中市豐原區頂街里中正路１７４號,9,3736010097,24.25205,120.719,OK
1170,台中市豐原區中正路３２９號,9,3736010122,24.250969,120.715091,OK
1171,台中市豐原區富春里中正路２３７號,9,3736010131,24.2515059,120.717231,OK
1172,台中市豐原區南村里向陽路１６５號,9,3736010168,24.25244,120.725897,OK
1173,台中市豐原區豐東路９８號,9,3736010211,24.2490936,120.730707,OK
1174,台中市豐原區民生里田心路一段６１號,9,3736010248,24.246854,120.717314,OK
1175,台中市豐原區東勢里中山路４５０號,9,3736010257,24.248013,120.715629,OK
1176,台中市豐原區中山路４２１號,9,3736010266,24.25066,120.714181,OK
1177,台中市豐原區大順街２１號,9,3736010284,24.258539,120.721616,OK
1178,台中市豐原區中興里成功路４７號,9,3736010300,24.246455,120.708342,OK
1179,台中市豐原區西安里圓環南路１９８號,9,3736010319,24.24909,120.709613,OK
1180,台中市豐原區豐原里豐中路３７號,9,3736010373,24.2560056,120.7224063,OK
1181,台中市豐原區中陽里園環東路６１１號,9,3736010382,24.250574,120.72802,OK
1182,台中市豐原區豐田里田心路二段２３０號,9,3736010391,24.238796,120.721886,OK
1183,台中市豐原區東勢里中興路１０１．１０３號,9,3736010426,24.248092,120.71571,OK
1184,台中市豐原區中陽里愛國街７號,9,3736010435,24.246882,120.725128,OK
1185,台中市豐原區豐西里忠孝街９１號,9,3736010453,24.253724,120.715905,OK
1186,台中市豐原區府前街８７之８號,9,3736010462,24.249245,120.717921,OK
1187,台中市豐原區圓環東路６９７及６９９號,9,3736010499,24.252573,120.7292763,OK
1188,台中市豐原區南陽里南陽路１０３號,7,3736010506,24.2448008,120.7279107,OK
1189,台中市豐原區中山路３７７號　,9,3736010515,24.249767,120.714509,OK
1190,台中市豐原區忠孝路６９號二樓,9,3736010597,24.253329,120.716197,OK
1191,台中市豐原區大湳里大仁街６４號,9,3736010613,24.2563676,120.7198498,OK
1192,台中市豐原區豐榮里信義街１６８號,9,3736010631,24.253772,120.718871,OK
1193,台中市豐原區三豐路６６３號,9,3736010640,24.26445,120.720089,OK
1194,台中市豐原區中正路６４號,9,3736010659,24.252916,120.721438,OK
1195,台中市豐原區豐西里中山路５１０巷９號,9,3736010677,24.252098,120.714795,OK
1196,台中市豐原區府前街１８０號,9,3736010686,24.2492479,120.715602,OK
1197,台中市豐原區中陽里同安街１６８號,9,3736010695,24.248062,120.7263952,OK
1198,台中市豐原區北陽里豐東路４５號,9,3736010720,24.2458989,120.728462,OK
1199,台中市豐原區仁愛街２９號,9,3736010739,24.252887,120.717365,OK
1200,台中市豐原區圓環東路６７８號４Ｆ,9,3736010748,24.250794,120.728675,OK
1201,台中市豐原區愛國街２６８號,9,3736010766,24.252846,120.728251,OK
1202,台中市豐原區中山路１５８號,9,3736010793,24.23928,120.711714,OK
1203,台中市豐原區南陽路４４５號,9,3736010800,24.2477137,120.7231088,OK
1204,台中市豐原區大明路２０號,9,3736010855,24.239929,120.710711,OK
1205,臺中市豐原區育仁路１１０號１樓,9,3736010873,24.2411336,120.7169022,OK
1206,台中市豐原區豐東路２１４號,9,3736010908,24.249505,120.731332,OK
1207,台中市豐原區育仁路１５８號,9,3736010917,24.240554,120.716367,OK
1208,台中市豐原區下街里三民路２０９號,9,3736010935,24.252993,120.716821,OK
1209,台中市豐原區成功路１８３號,9,3736010944,24.2457713,120.7087079,OK
1210,台中市豐原區田心里田心路２段２１２號,9,3736012028,24.2390499,120.721635,OK
1211,台中市豐原區南陽里南陽路２８９號,7,3736012037,24.2448008,120.7279107,OK
1212,台中市豐原區北陽里南陽路３１４號,7,3736012046,24.2446887,120.7281025,OK
1213,台中市豐原區中山路６２６及６２８號１樓,9,3736012064,24.25447,120.7135416,OK
1214,台中市豐原區豐東路４７６號,9,3736012082,24.2548374,120.7338641,OK
1215,台中市豐原區圓環東路２５８－１、２６０號之１、２樓,9,3736012091,24.2432656,120.7214834,OK
1216,台中市豐原區中正路５４１號,9,3736012108,24.249999,120.709924,OK
1217,台中市豐原區自強南街２４號,9,3736012126,24.246787,120.723105,OK
1218,台中市豐原區成功路１４號,9,3736012135,24.24223,120.71251,OK
1219,台中市豐原區中正路７１１號,9,3736012144,24.249046,120.7014923,OK
1220,台中市豐原區育英路２７號,9,3736012153,24.2434372,120.7164527,OK
1221,台中市豐原區中山路５０６－１號,9,3736012162,24.250392,120.714738,OK
1222,台中市豐原區永康路５６及５８號,9,3736012199,24.2436905,120.7275284,OK
1223,台中市豐原區和平街５０號,9,3736012224,24.2530785,120.7200887,OK
1224,台中市豐原區翁子里豐勢路二段９號,9,3736012242,24.261021,120.736055,OK
1225,台中市豐原區三民路１３２及１３４號,9,3736012251,24.2536109,120.719442,OK
1226,台中市豐原區南陽路２９９之７號,9,3736012288,24.245469,120.72657,OK
1227,台中市東勢區豐勢路４４８號,9,3736020057,24.2559399,120.829089,OK
1228,台中市東勢區東安里本街３０７號,9,3736020066,24.2569213,120.8276451,OK
1229,台中市東勢區南平里本街１８７號,9,3736020075,24.25592,120.828022,OK
1230,台中市東勢區豐勢路４１２號,9,3736020084,24.25504,120.82946,OK
1231,台中市東勢區東安里中山路８６號,9,3736020093,24.2569933,120.8290943,OK
1232,台中市東勢區豐勢路２３３號,9,3736020100,24.2521683,120.8298863,OK
1233,台中市東勢區豐勢路２８１號,9,3736020128,24.2530906,120.8296821,OK
1234,台中市東勢區東坑路２１號,9,3736020137,24.2475879,120.8324572,OK
1235,台中市東勢區豐勢路２００號,9,3736021143,24.250553,120.830551,OK
1236,台中市東勢區三民街２６０號,9,3736021152,24.2568747,120.8299642,OK
1237,台中市東勢區中山路４０號,9,3736021161,24.2572639,120.8301429,OK
1238,台中市東勢區東安里第三橫街１２１及１２３號,9,3736021170,24.2559449,120.8299897,OK
1239,台中市大甲區三民路３９號,9,3736030035,24.3460108,120.6206756,OK
1240,台中市大甲區蔣公路７９號,9,3736030044,24.3451179,120.6240235,OK
1241,台中市大甲區大甲里蔣公路１號,9,3736030053,24.3444565,120.6262491,OK
1242,台中市大甲區大甲里中山路一段９４５號,9,3736030071,24.3442204,120.6261613,OK
1243,台中市大甲區薰風里光明路１０１號,9,3736030080,24.3440011,120.6225998,OK
1244,台中市大甲區薰國里光明路６９號,3,3736030099,24.3788233,120.6487508,OK
1245,台中市大甲區順天里民生路２２號,9,3736030106,24.3469713,120.6264099,OK
1246,台中市大甲區五福街２０號,9,3736030133,24.346211,120.619723,OK
1247,台中市大甲區順天路３２４號,9,3736030151,24.3498007,120.6267727,OK
1248,台中市大甲區通天路２７４號,9,3736030160,24.3823209,120.6525085,OK
1249,台中市大甲區大甲里蔣公路３４號,9,3736030179,24.3449055,120.6256058,OK
1250,台中市大甲區中山路一段一一四九號,9,3736030197,24.35316,120.629181,OK
1251,台中市大甲區德興路１７３號,9,3736030213,24.3512122,120.6215887,OK
1252,台中市大甲區順天里蔣公路１８８號,9,3736031238,24.346727,120.6210224,OK
1253,台中市大甲區光明路１２６，１２８號,9,3736031247,24.3442381,120.6225174,OK
1254,台中市大甲區朝陽里新政路一七號一樓,9,3736031256,24.347684,120.626604,OK
1255,臺中市大甲區文武路４２號１樓及２樓,9,3736031265,24.3461282,120.6250783,OK
1256,台中市大甲區孟春里通天路２０６號,9,3736031274,24.3815386,120.6539425,OK
1257,台中市清水區清水里６鄰新興路長壽巷１１號,7,3736040040,24.262885,120.5717998,OK
1258,台中市清水區北寧里中興街３２－２號,9,3736040068,24.271521,120.576771,OK
1259,台中市清水區南寧里鎮北街５９號,9,3736040077,24.268775,120.574732,OK
1260,台中市清水區靈泉里新興路１３０號,9,3736040086,24.266601,120.576035,OK
1261,台中市清水區西寧路６６號,9,3736040102,24.2731559,120.5763189,OK
1262,台中市清水區鎮南街１之６號,9,3736040111,24.266732,120.576691,OK
1263,台中市清水區南寧里光華路７５號２樓,9,3736040120,24.2646366,120.5724922,OK
1264,台中市清水區中華路３４０號,9,3736040148,24.268617,120.567042,OK
1265,台中市清水區中山路２５２號,9,3736040157,24.272478,120.576997,OK
1266,台中市清水區文昌里文昌街４０號,9,3736040166,24.2703961,120.5765467,OK
1267,台中市清水區鎮南街８１８號,3,3736040193,24.301983,120.5854674,OK
1268,台中市清水區文昌街３９號,9,3736040200,24.2699583,120.5762287,OK
1269,台中市清水區中正街２７號一，二樓,9,3736040219,24.2625062,120.571947,OK
1270,台中市清水區學園街４７號,9,3736040228,24.2664319,120.5739675,OK
1271,台中市清水區清水街１２號,9,3736040237,24.269184,120.576602,OK
1272,台中市清水區中山路３５７號１及２樓,9,3736041270,24.272041,120.57641,OK
1273,台中市沙鹿區日新街１２２－１號,9,3736050019,24.237272,120.5602832,OK
1274,台中市沙鹿區沙鹿里中山路３１１號,9,3736050028,24.2384193,120.5598191,OK
1275,台中市沙鹿區鹿寮里中山路５３８號,9,3736050037,24.249676,120.565758,OK
1276,台中市沙鹿區居仁里文昌街１５１巷３８號,9,3736050046,24.241419,120.5612069,OK
1277,台中市沙鹿區沙鹿里中山路２７１號,9,3736050055,24.2376932,120.5606523,OK
1278,台中市沙鹿區沙田路７５之３號,9,3736050064,24.2338593,120.5584398,OK
1279,台中市沙鹿區洛泉里中山路２１２號,9,3736050073,24.237737,120.562496,OK
1280,台中市沙鹿區興安里大同街２３－４號,9,3736050091,24.2346154,120.5575149,OK
1281,台中市沙鹿區沙田路１６８號１樓及地下１樓,9,3736050108,24.2369231,120.5597835,OK
1282,台中市沙鹿區北勢里英才路１２９號,9,3736050117,24.225081,120.570293,OK
1283,台中市沙鹿區中山路３９２號,9,3736050135,24.2423929,120.561449,OK
1284,台中市沙鹿區沙田路８７號,9,3736050153,24.2342093,120.558487,OK
1285,台中市沙鹿區美仁里中正街１５號,9,3736050162,24.2359001,120.5609554,OK
1286,台中市沙鹿區大新街１１３號,4,3736050180,24.2377939,120.5854674,OK
1287,台中市沙鹿區臺灣大道七段９８６號１樓,9,3736050199,24.2406885,120.5619902,OK
1288,台中市沙鹿區鹿寮里光榮街４號,9,3736050206,24.243295,120.561931,OK
1289,台中市沙鹿區鹿寮里光華路３２２號,9,3736051221,24.2419534,120.5651681,OK
1290,台中市沙鹿區北勢里鎮南路二段456號,9,3736051230,24.231127,120.566309,OK
1291,台中市沙鹿區大同街１５３號,0,3736051249,,,ZERO_RESULTS
1292,台中市沙鹿區北勢東路５２９號,9,3736051258,24.2264202,120.5752294,OK
1293,台中市沙鹿區中山路５３９號,9,3736051276,24.2493159,120.564685,OK
1294,台中市沙鹿區光大路２８２號,9,3736051285,24.2429661,120.5651016,OK
1295,台中市沙鹿區中山路１８２號,9,3736051294,24.2375228,120.5637364,OK
1296,台中市沙鹿區鹿寮里成功東街４５號及４５－１號,7,3736051302,24.2465797,120.5638863,OK
1297,臺中市沙鹿區臺灣大道七段４９０號１樓及２樓,9,3736051310,24.2334674,120.5722714,OK
1298,台中市沙鹿區斗潭路５０３號,9,3736051329,24.2327735,120.5575418,OK
1299,臺中市梧棲區臺灣大道八段８４７巷２８號１樓,9,3736060015,24.2428168,120.5480568,OK
1300,台中市梧棲區大庄里中棲路一段７１６號,9,3736060024,24.2480775,120.5425461,OK
1301,台中市梧棲區文化里中和街２０號,9,3736060042,24.2540375,120.5312145,OK
1302,台中市梧棲區中央路一段８５９２號,5,3736060051,24.2479737,120.5394232,OK
1303,台中市梧棲區居仁街２１９號　,9,3736060088,24.2580575,120.5338653,OK
1304,台中市后里區四村路３２號,9,3736070020,24.3037042,120.7123275,OK
1305,台中市后里區厚里里甲后路５７７號,9,3736070039,24.3094984,120.7184922,OK
1306,台中市后里區甲后路３８９號,9,3736070048,24.3088107,120.7231774,OK
1307,台中市后里區墩西村四村路８２號,9,3736070066,24.304781,120.712786,OK
1308,台中市后里區民生路２２０１號,0,3736070075,,,ZERO_RESULTS
1309,台中市后里區民生路９２－１號,9,3736070093,24.3076799,120.716533,OK
1310,台中市后里區墩西里中山路７９號,9,3736070100,24.3056519,120.7119841,OK
1311,台中市后里區甲后路３９０號,9,3736070119,24.3313929,120.6537331,OK
1312,台中市后里區墩北里大興路３４號,9,3736070128,24.3061828,120.7122966,OK
1313,台中市后里區三豐路１０２號,9,3736070137,24.3077911,120.7221448,OK
1314,台中市神岡區神岡里神岡路２６號,9,3736080017,24.2577302,120.6614043,OK
1315,台中市神岡區神岡里神岡路１４１號,9,3736080026,24.2565826,120.6584784,OK
1316,臺中市神岡區民生路４１號１樓,9,3736080044,24.2450139,120.6809923,OK
1317,台中市神岡區豐洲里豐洲路１３７號,9,3736080080,24.25763,120.7144831,OK
1318,臺中市神岡區神圳路２－６號１及２樓,9,3736080179,24.2586613,120.6611712,OK
1319,台中市神岡區中山路１５號,9,3736080197,24.2486715,120.6987367,OK
1320,台中市神岡區五權路８９號,9,3736081265,24.2573248,120.7121022,OK
1321,台中市神岡區中山路３５號,9,3736081274,24.2486048,120.6983059,OK
1322,台中市神岡區中山路６０４號,9,3736081318,24.2467237,120.6828237,OK
1323,台中市潭子區潭秀里雅潭路一段４２號,9,3736090040,24.2157571,120.7037512,OK
1324,台中市潭子區潭秀里中山路二段３８４－９號,9,3736090059,24.2146234,120.7052413,OK
1325,台中市潭子區中山路一段４３之２號,9,3736090095,24.1916067,120.7024201,OK
1326,台中市潭子區中山路一段２９，３１，３３號１及２樓,9,3736090120,24.1911991,120.7024248,OK
1327,台中市潭子區祥和路１２６３號,0,3736090157,,,ZERO_RESULTS
1328,台中市潭子區潭子街二段７３號,8,3736090255,24.2039587,120.7014331,OK
1329,臺中市潭子區榮興街９３號１樓,9,3736090264,24.189687,120.7017431,OK
1330,台中市潭子區中山路二段４７４１號,4,3736090273,24.2163612,120.7062535,OK
1331,台中市潭子區頭家里頭張路一段９６號１．２樓,9,3736090326,24.1944057,120.6999885,OK
1332,台中市潭子區雅潭路２段２３０號,9,3736090335,24.2160052,120.6920206,OK
1333,台中市潭子區福仁里大新路６２號,9,3736090362,24.2023028,120.7074211,OK
1334,台中市潭子區圓通南路２９３號,9,3736090406,24.2072554,120.7022014,OK
1335,台中市潭子區潭陽里潭興路３段７５號,9,3736090415,24.2115941,120.702887,OK
1336,台中市潭子區頭家里中山路１段１７１號,9,3736091430,24.1951961,120.7024279,OK
1337,台中市潭子區甘蔗里潭興路３段１１２號,9,3736091458,24.211648,120.7014926,OK
1338,台中市潭子區潭子街二段６８號,9,3736091476,24.2124133,120.7075205,OK
1339,台中市潭子區中山路一段１７－２及１７－３號,9,3736091485,24.1895203,120.7011596,OK
1340,台中市潭子區圓通南路２８１號１及２樓,9,3736091538,24.2072554,120.7022014,OK
1341,台中市潭子區仁愛路三段６８號１樓,9,3736091547,24.2155318,120.7064578,OK
1342,台中市潭子區大豐路３段７８號,9,3736091556,24.221148,120.6922493,OK
1343,台中市潭子區中山路１段７號１樓,9,3736091565,24.1874844,120.7023939,OK
1344,台中市潭子區潭興路３段６７及６９號,9,3736091574,24.2115874,120.7031482,OK
1345,台中市潭子區興華一路３３２號及３３２－１號,9,3736091583,24.212568,120.7036731,OK
1346,台中市潭子區中山路二段４９０號,9,3736091592,24.216994,120.7056471,OK
1347,台中市大雅區民生路一段２１４號,9,3736100014,24.2276551,120.651174,OK
1348,臺中市大雅區中清東路２３９號１樓,9,3736100023,24.2254287,120.6462096,OK
1349,臺中市大雅區中清路三段１１０３、１１０５號,7,3736100041,24.2138814,120.6496355,OK
1350,台中市大雅區大雅里民興街１２７號,9,3736100069,24.2266352,120.6493551,OK
1351,臺中市大雅區雅潭路四段８８號１樓,9,3736100078,24.2208387,120.6513575,OK
1352,台中市大雅區民生路二段六號,9,3736100087,24.2294279,120.6544675,OK
1353,台中市大雅區大雅里大榮街１２４號,9,3736100103,24.2253468,120.6522315,OK
1354,台中市大雅區上楓里民生路三段３７０號,9,3736100130,24.2338077,120.664497,OK
1355,台中市大雅區上楓里民生路三段３４２號,9,3736100149,24.2331191,120.6634384,OK
1356,台中市大雅區中清路三段１０１５號１樓,7,3736100167,24.2138814,120.6496355,OK
1357,台中市大雅區雅潭路３９６號,9,3736100194,24.2216067,120.6496694,OK
1358,臺中市大雅區大雅路１２６號１樓及２樓,9,3736100210,24.2252022,120.6480788,OK
1359,台中市大雅區大雅里學府路２１３號,9,3736100238,24.2216282,120.649948,OK
1360,臺中市大雅區中清路四段１２號１樓,9,3736100247,24.2328126,120.6386679,OK
1361,臺中市大雅區中清東路１４８號１樓,9,3736101262,24.2229984,120.6480128,OK
1362,台中市大雅區學府路２５０巷７４號,9,3736101280,24.2239017,120.6524245,OK
1363,台中市大雅區民生路一段１６０號,9,3736101299,24.2270683,120.6496586,OK
1364,台中市大雅區民生路１段５７號,9,3736101306,24.2263545,120.6471855,OK
1365,臺中市大雅區雅潭路四段６３３號１樓及２樓,9,3736101315,24.2211861,120.6530494,OK
1366,台中市大雅區民生路１段３０２號,9,3736101324,24.2285304,120.6528039,OK
1367,台中市大雅區雅環路二段３３６號,9,3736101333,24.2292884,120.6475709,OK
1368,臺中市大雅區雅潭路四段８３０號１樓,9,3736101351,24.2210783,120.6479043,OK
1369,台中市新社區中和街四段６１號,9,3736110029,24.2413455,120.8072446,OK
1370,台中市新社區中和街４段２０７巷１０號,9,3736111044,24.244236,120.8088276,OK
1371,臺中市外埔區甲后路３４２之１號１樓,9,3736131064,24.3301548,120.6552158,OK
1372,台中市外埔區大同里甲后路３９７號,9,3736131073,24.3312822,120.6538027,OK
1373,台中市大安區中庄里中山南路２８９號,9,3736140018,24.3453385,120.5872261,OK
1374,台中市烏日區烏日里平等路２８－３號,9,3736150014,24.1084066,120.6227852,OK
1375,台中市烏日區烏日里中山路二段２４６號,9,3736150041,24.1064684,120.6215346,OK
1376,台中市烏日區前竹里中山路一段１１號,9,3736150050,24.111434,120.649805,OK
1377,台中市烏日區九德里中華路７０號,9,3736150087,24.1106388,120.6417029,OK
1378,台中市烏日區仁德里中山路一段２１６號,9,3736150096,24.1091723,120.6423194,OK
1379,台中市烏日區烏日里中山路二段１７６號,9,3736150103,24.1064319,120.6243365,OK
1380,台中市烏日區中山路一段３６６號,9,3736150130,24.1079552,120.6384588,OK
1381,台中市烏日區烏日里中山路一段３５７號,9,3736150158,24.1079552,120.6384588,OK
1382,台中市烏日區中山路二段６１號,9,3736150167,24.1054992,120.6294806,OK
1383,台中市烏日區中山路２段２５６號,9,3736150238,24.1064866,120.621224,OK
1384,台中市烏日區三民街１４５號,9,3736150256,24.1074124,120.6222058,OK
1385,台中市烏日區中山路一段４３１號,9,3736150265,24.1076052,120.6373079,OK
1386,台中市烏日區溪南路１段６４６號,9,3736150274,24.0763139,120.6431808,OK
1387,台中市烏日區中山路二段２６５號,9,3736151324,24.1062915,120.6239609,OK
1388,台中市烏日區中山路一段四三五號,9,3736151333,24.1076052,120.6373079,OK
1389,台中市烏日區中山路一段３７３號,9,3736151342,24.1077119,120.63767,OK
1390,台中市大肚區頂街里沙田路二段７５６號,9,3736160010,24.1535772,120.5445865,OK
1391,台中市大肚區大肚里沙田路二段６２９號,9,3736160029,24.1506535,120.5454826,OK
1392,台中市大肚區福山里沙田路一段４４８號,9,3736160038,24.1233435,120.5647023,OK
1393,台中市大肚區蔗廓里遊園路二段１７５號,4,3736160092,24.1358732,120.5624474,OK
1394,台中市大肚區福山里沙田路一段４８１號,9,3736160127,24.1234658,120.5640854,OK
1395,台中市大肚區遊園路二段１０１號,9,3736160154,24.1708711,120.5798916,OK
1396,台中市大肚區蔗部里遊園路２段１８１巷２５號,4,3736160207,24.1358732,120.5624474,OK
1397,台中市大肚區頂街里華昌街５６號,9,3736161277,24.1526526,120.5439445,OK
1398,台中市大肚區沙田路二段５９３號１樓,9,3736161286,24.1500529,120.5459224,OK
1399,台中市龍井區新庄里遊園南路２０６號,9,3736170025,24.182165,120.5841314,OK
1400,台中市龍井區遊園南路２４４號,9,3736170052,24.1812863,120.5838051,OK
1401,台中市龍井區新東里新興路２９－５號,9,3736170061,24.1805958,120.5891966,OK
1402,台中市龍井區龍津里中央路一段２４２號,9,3736170089,24.2024387,120.523441,OK
1403,台中市龍井區龍新路１５３巷１５號,9,3736170105,24.1972679,120.5469472,OK
1404,台中市龍井區遊園南路１９５號,9,3736170150,24.1816727,120.5841138,OK
1405,台中市龍井區遊園南路１９１號,9,3736170169,24.1817493,120.5841607,OK
1406,台中市龍井區國際街１６１，１６３號,9,3736170178,24.1875163,120.5957204,OK
1407,台中市龍井區沙田路四段６８８號,9,3736170187,24.1931378,120.5461748,OK
1408,台中市龍井區新興路３９１.３９２號,3,3736171200,24.2102428,120.5163949,OK
1409,台中市龍井區新東里新興路７巷３，５號,9,3736171219,24.1809443,120.5916202,OK
1410,台中市龍井區國際街１１３號１樓,9,3736171255,24.1865571,120.5953498,OK
1411,台中市霧峰區中正路９４８號１樓,9,3736180012,24.0654192,120.6988318,OK
1412,台中市霧峰區中正里萊園路２５號,9,3736180030,24.0638153,120.701678,OK
1413,台中市霧峰區中正路９２５號,9,3736180049,24.0651463,120.6987573,OK
1414,台中市霧峰區萊園路６之３號,9,3736180067,24.0643624,120.6989549,OK
1415,台中市霧峰區中正路１０５２號,9,3736180076,24.067595,120.6990914,OK
1416,台中市霧峰區南柳里中正路４９４號,9,3736180110,24.0421865,120.6919107,OK
1417,台中市霧峰區本堂里育仁街１６號,9,3736180156,24.0633575,120.6978503,OK
1418,台中市霧峰區中正路９５１號,9,3736181206,24.0656012,120.6988183,OK
1419,台中市霧峰區甲寅里中正路１１２３號,9,3736181215,24.0696818,120.6993132,OK
1420,台中市霧峰區吉峰路１２８之２號,9,3736181233,24.0769036,120.7106548,OK
1421,台中市霧峰區中正路７７０號,9,3736181242,24.0604197,120.698276,OK
1422,台中市霧峰區中正路８３２號,9,3736181251,24.0607027,120.6982255,OK
1423,台中市霧峰區四德路１８之１號,9,3736181260,24.0648005,120.6976183,OK
1424,台中市太平區中興里太平路５８０號,9,3736190036,24.12587,120.713012,OK
1425,台中市太平區太平里太平路５６５號,9,3736190045,24.1254639,120.712782,OK
1426,台中市太平區新坪里中山路三段３２號,9,3736190081,24.149365,120.720982,OK
1427,台中市太平區中興路１５２號,9,3736190090,24.1262149,120.71381,OK
1428,台中市太平區新坪里中山路三段１７４號,9,3736190152,24.148879,120.717376,OK
1429,台中市太平區中山路３段９０號，９２號１樓－２樓,9,3736190170,24.1488238,120.718432,OK
1430,台中市太平區太平路１７９號,9,3736190189,24.120435,120.720558,OK
1431,台中市太平區太平里太平路７５５號,9,3736190205,24.1281201,120.7086154,OK
1432,台中市太平區新平路一段２５號,9,3736190214,24.1295155,120.7174953,OK
1433,台中市太平區中山路四段２５２號１樓,9,3736190232,24.1480807,120.7010605,OK
1434,台中市太平區中興路１５１號,1,3736190241,24.1477358,120.6736482,OK
1435,台中市太平區中山里大源路１－１５號,9,3736190250,24.1458482,120.7256825,OK
1436,台中市太平區中興路１３４－２號,9,3736190278,24.126675,120.714573,OK
1437,台中市太平區宜欣里新平路二段１６５號,9,3736190330,24.1397355,120.7148951,OK
1438,台中市太平區宜欣里新平路二段２３９號,9,3736190349,24.1413597,120.7146898,OK
1439,台中市太平區長億里太平路２０１號,9,3736190358,24.1208,120.72021,OK
1440,台中市太平區宜昌路５２８號,9,3736190385,24.1470001,120.7152041,OK
1441,台中市太平區長億里永成北路１３２號,9,3736190429,24.117484,120.714747,OK
1442,台中市太平區樹孝路８號,9,3736190456,24.1501427,120.7165133,OK
1443,台中市太平區東平路６１７號,9,3736190474,24.133295,120.716344,OK
1444,台中市太平區中山路三段１４１號１樓,9,3736190518,24.1489152,120.7150735,OK
1445,台中市太平區振福路２１６號,9,3736190545,24.148728,120.7055436,OK
1446,台中市太平區太平２２街８６號及９０號,1,3736190563,24.1477358,120.6736482,OK
1447,台中市太平區中興路３２２號,1,3736190590,24.1477358,120.6736482,OK
1448,台中市太平區樹孝路４７號,9,3736190616,24.1509237,120.7164998,OK
1449,台中市太平區中平里中平路１２４號,9,3736190643,24.1281699,120.717958,OK
1450,台中市太平區長億里太平三街１３號,9,3736190652,24.1189469,120.721826,OK
1451,台中市太平區坪林里大興路７８號,9,3736190670,24.1526452,120.7333203,OK
1452,台中市太平區坪林里中山路１段３８２號,9,3736190705,24.1446829,120.734714,OK
1453,台中市太平區新福里中山路４段２００號,9,3736190714,24.1482129,120.7025233,OK
1454,台中市太平區振福路５３６號,9,3736191720,24.155367,120.7109004,OK
1455,台中市太平區新福里中山路４段１２１號,9,3736191748,24.1481215,120.7038745,OK
1456,台中市太平區坪林里中山路１段２６８．２７０號,9,3736191757,24.142197,120.73328,OK
1457,台中市太平區樹孝路７１號,9,3736191775,24.151594,120.716734,OK
1458,台中市太平區樹德路５６號,9,3736191784,24.150946,120.7108427,OK
1459,台中市太平區宜昌路７７號及７９號,1,3736191800,24.1477358,120.6736482,OK
1460,台中市太平區樹孝路８７號,9,3736191828,24.1518469,120.716933,OK
1461,台中市大里區西榮里東榮路１８５號,9,3736200028,24.1103242,120.6852112,OK
1462,台中市大里區新仁七街１－２號,9,3736200037,24.1109243,120.7037676,OK
1463,台中市大里區立仁里好來二街３４號,9,3736200046,24.109778,120.6996713,OK
1464,台中市大里區西榮里中興路二段６１７號,9,3736200055,24.1149504,120.6895301,OK
1465,台中市大里區內新里中興路二段２２２．２２４號,9,3736200064,24.1080349,120.6899884,OK
1466,台中市大里區上興街２段１７１號,9,3736200082,24.0945309,120.700102,OK
1467,台中市大里區東湖里中興路一段２６５號,9,3736200091,24.091012,120.691863,OK
1468,台中市大里區金城里塗城路７０２巷２號,9,3736200108,24.0897336,120.6986203,OK
1469,台中市大里區西榮里中興二段６６３號,9,3736200117,24.1164886,120.6895705,OK
1470,台中市大里區中興路二段１９０－３號,9,3736200126,24.1022715,120.6885598,OK
1471,台中市大里區大智路５２８號,9,3736200135,24.121775,120.689708,OK
1472,台中市大里區大新街３１號,9,3736200144,24.0993664,120.6785526,OK
1473,台中市大里區大里路１６號,9,3736200162,24.1081104,120.6894676,OK
1474,台中市大里區金城里塗城路７３５巷３２弄８號,9,3736200171,24.0881813,120.6989805,OK
1475,台中市大里區金城里中興路一段３２０號,9,3736200199,24.090386,120.693528,OK
1476,台中市大里區新仁里立仁路４３－２號,9,3736200206,24.1085672,120.7031905,OK
1477,台中市大里區大里里福興街３２號,9,3736200224,24.0978745,120.6777385,OK
1478,台中市大里區東昇里益民路一段７４號,9,3736200242,24.109386,120.693731,OK
1479,台中市大里區東興里東明路２９６號,9,3736200251,24.1131661,120.6826767,OK
1480,台中市大里區新南路１５４號,9,3736200288,24.1081799,120.6883173,OK
1481,台中市大里區金城里塗城路８５９號,9,3736200304,24.090235,120.6970032,OK
1482,台中市大里區益民路２段２７號,9,3736200340,24.1064098,120.6880086,OK
1483,台中市大里區立仁里立仁路１３０號,9,3736200359,24.1068259,120.7040238,OK
1484,台中市大里區大里路４３號,9,3736200368,24.1058499,120.688108,OK
1485,台中市大里區塗城路４２７號,9,3736200377,24.086734,120.707974,OK
1486,台中市大里區瑞城里塗城路４７５號,9,3736200402,24.087048,120.706834,OK
1487,台中市大里區東興里益民路二段３３３１，３３３２號,8,3736200475,24.1127003,120.6825368,OK
1488,台中市大里區中興路一段２７７，２７９號,9,3736200493,24.091232,120.691606,OK
1489,台中市大里區大新街２１．２３號,9,3736200573,24.0994652,120.6790041,OK
1490,台中市大里區永明街２７５號,9,3736200582,24.104759,120.6766864,OK
1491,台中市大里區中興路２段６７５號１及２樓,0,3736200626,,,ZERO_RESULTS
1492,台中市大里區塗城路６８７號,9,3736200635,24.088542,120.700754,OK
1493,台中市大里區新仁路一段１２７號,9,3736200644,24.1110934,120.7033006,OK
1494,台中市大里區成功二路４１號,9,3736200662,24.0934266,120.703482,OK
1495,臺中市大里區仁化路４１９號１樓,9,3736200671,24.0961711,120.7026761,OK
1496,台中市大里區西榮里中興路２段２３９號,9,3736200715,24.1085979,120.6897576,OK
1497,台中市大里區大明路１42號,9,3736200733,24.1152592,120.6863246,OK
1498,台中市大里區新仁里新仁７街９４號,9,3736201749,24.1093643,120.7074781,OK
1499,臺中市大里區爽文路１１２６號１樓,9,3736201767,24.1143714,120.6744175,OK
1500,台中市大里區西榮里益民路２段５２之１號,9,3736201776,24.1069152,120.6863683,OK
1501,台中市大里區瑞城里成功路422號,9,3736201794,24.0886966,120.7029161,OK
1502,台中市大里區大新街２４號１，２樓,9,3736201801,24.0998399,120.679138,OK
1503,台中市大里區益民路２段２７３號,9,3736201810,24.1110551,120.6838296,OK
1504,台中市大里區德芳南路３４１號１，２樓,9,3736201865,24.1031069,120.6849022,OK
1505,台中市大里區塗城路８２０、８２２及８２４號,9,3736201874,24.090927,120.696255,OK
1506,台中市大里區永隆路１６５號１樓,9,3736201892,24.1062853,120.677073,OK
1507,台中市大里區益民路２段１８３及１８５號１樓,9,3736201936,24.1079232,120.6840073,OK
1508,台中市大里區永隆路３７５號１樓,9,3736201972,24.1110904,120.6764574,OK
1509,台中市大里區慈德街１５８號,9,3736201981,24.0959945,120.6988441,OK
1510,台中市大里區塗城路５６９號,9,3736201990,24.087718,120.704574,OK
1511,台中市大里區新興路１２號１及２樓,9,3736202004,24.0983823,120.6772417,OK
1512,台中市大里區中興路二段３１３號２樓,9,3736202013,24.1099053,120.6897965,OK
1513,台中市大里區永興路２０號,9,3736202022,24.1062336,120.6828298,OK
1514,台中市大里區益民路二段２５８號,9,3736202040,24.1107049,120.684068,OK
1515,彰化縣彰化市彰安里中正路二段４４９號,9,3737010019,24.0722559,120.536384,OK
1516,彰化縣彰化市長樂里三民路４９號,9,3737010028,24.0830166,120.53995,OK
1517,彰化縣彰化市光華里城中街２７號,9,3737010091,24.0787992,120.5414371,OK
1518,彰化縣彰化市福安里福鎮街１８號,9,3737010108,24.0733872,120.542625,OK
1519,彰化縣彰化市忠權里彰美路一段１５３號,9,3737010117,24.0882059,120.5382933,OK
1520,彰化縣彰化市民生里永安街１８３號,9,3737010126,24.087321,120.5446936,OK
1521,彰化縣彰化市莿桐里彰鹿路３５之２２號,9,3737010135,24.0625059,120.518639,OK
1522,彰化縣彰化市長樂里光復路１６１號２樓,9,3737010144,24.0807741,120.5396099,OK
1523,彰化縣彰化市光復里中正路一段４９１號,9,3737010153,24.082015,120.54123,OK
1524,彰化縣彰化市南瑤里民族路１２８號,9,3737010162,24.068731,120.5382567,OK
1525,彰化縣彰化市永生里民生路１４號,9,3737010171,24.074985,120.54267,OK
1526,彰化縣彰化市光南里南校街５４號,9,3737010180,24.0720935,120.5465336,OK
1527,彰化縣彰化市大同里成功路９４號,9,3737010215,24.07751,120.541805,OK
1528,彰化縣彰化市民權里華山路１４８號,9,3737010251,24.0751529,120.539201,OK
1529,彰化縣彰化市光復里中正路一段３７１號,9,3737010288,24.082744,120.544044,OK
1530,彰化縣彰化市萬壽里中正路二段１９２號,9,3737010297,24.0778541,120.5369836,OK
1531,彰化縣彰化市大同里民族路４８２號,9,3737010313,24.076866,120.540658,OK
1532,彰化縣彰化市民權里華山路１５６號,9,3737010340,24.07524,120.53906,OK
1533,彰化縣彰化市忠權里彰美路一段１９５號,9,3737010359,24.088723,120.537482,OK
1534,彰化縣彰化市萬安里三民路３７３號,9,3737010386,24.086388,120.546299,OK
1535,彰化縣彰化市中正里中山路２段８７１號,9,3737010411,24.0833451,120.5495452,OK
1536,彰化縣彰化市西安里南瑤路３２７巷２６號,9,3737010420,24.0732299,120.5399279,OK
1537,彰化縣彰化市長樂里長安街１１０號,9,3737010439,24.080184,120.539331,OK
1538,彰化縣彰化市陽明里中正路一段１０６之２號,9,3737010457,24.0843375,120.549831,OK
1539,彰化縣彰化市大同里太平街１４０號,9,3737010475,24.077582,120.540828,OK
1540,彰化縣彰化市彰安里民族路１７１號,9,3737010528,24.0698219,120.53839,OK
1541,彰化縣彰化市東芳里永芳路３５８號,9,3737010537,24.066859,120.514019,OK
1542,彰化縣彰化市光復里長安街３３號,9,3737010546,24.0812608,120.5409281,OK
1543,彰化縣彰化市福安里華山路４７號３樓,9,3737010555,24.0743549,120.54191,OK
1544,"彰化縣彰化市中山路２段９４８號１,２樓９５６號地下室",9,3737010564,24.0837972,120.5519184,OK
1545,彰化縣彰化市延平里大埔路４０９號,9,3737010573,24.0628717,120.5436283,OK
1546,彰化縣彰化市萬壽里中正路二段１８４號,9,3737010582,24.078053,120.5369615,OK
1547,彰化縣彰化市福安里曉陽路１７巷２２號,9,3737010591,24.0715549,120.54155,OK
1548,彰化縣彰化市中正里中山路二段８８５號２Ｆ,9,3737010626,24.083608,120.549858,OK
1549,彰化縣彰化市福安里民生南路２號１樓,9,3737010635,24.072311,120.542222,OK
1550,彰化縣彰化市華北里南郭路一段８６號,9,3737010644,24.074901,120.546135,OK
1551,彰化縣彰化市東興里東民街１７號,9,3737010653,24.0753819,120.54588,OK
1552,彰化縣彰化市三民路２５１、２５３號,9,3737010662,24.0857586,120.5436346,OK
1553,彰化市中山路三段１６８、１７０號,9,3737010671,24.085524,120.557562,OK
1554,彰化縣彰化市大同里太平街６號,9,3737010680,24.077241,120.544009,OK
1555,彰化縣彰化市信義里中正路１段５１２號１樓,9,3737010699,24.0822779,120.54082,OK
1556,彰化縣彰化市民生里長興街１３７號,9,3737010706,24.084685,120.544208,OK
1557,彰化市文化里中民街６４號,9,3737010715,24.0846886,120.546923,OK
1558,彰化縣彰化市新興里自強路２號,9,3737010724,24.089372,120.537775,OK
1559,彰化縣彰化市萬安里三民路３９９號,9,3737010733,24.086555,120.546837,OK
1560,彰化縣彰化市永福里永福街１２號,9,3737010742,24.0787708,120.544167,OK
1561,彰化縣彰化市中正里永昌街２１號,9,3737010760,24.081935,120.544932,OK
1562,彰化縣彰化市中央里太平街１５４號,9,3737010779,24.077772,120.540268,OK
1563,彰化市莿桐里彰鹿路３７１號,7,3737010797,24.0587109,120.5178343,OK
1564,彰化縣彰化市永安街１６５號　,9,3737010822,24.086744,120.544795,OK
1565,彰化縣彰化市牛埔里彰南路三段２９１號,9,3737010859,24.081779,120.5988844,OK
1566,彰化縣彰化市東興里南郭路一段１２１號　,9,3737010886,24.0750359,120.5474979,OK
1567,彰化縣彰化市大竹里彰南路二段１６號,9,3737010895,24.0853009,120.5772791,OK
1568,彰化縣彰化市長樂里中正路二段４３號２樓,9,3737010902,24.080505,120.5384464,OK
1569,彰化縣彰化市光華里中華路１３８號,9,3737010911,24.0786086,120.5407816,OK
1570,彰化縣彰化市中山路一段３４２號,9,3737010920,24.0604474,120.5352714,OK
1571,彰化縣彰化市延平里大埔路５６２號,9,3737010939,24.065815,120.542904,OK
1572,彰化縣彰化市建寶里介壽北路８６號,9,3737010948,24.068889,120.54803,OK
1573,彰化縣彰化市復興里中山路３段２１６號,9,3737010975,24.0858678,120.5584935,OK
1574,彰化縣彰化市平和里崙平南路３２２號,9,3737010984,24.0626969,120.527283,OK
1575,彰化縣彰化市民生里三民路２７７號,9,3737010993,24.0859269,120.544081,OK
1576,彰化縣彰化市古夷里泰和路三段２８號,9,3737011007,24.095481,120.5572048,OK
1577,彰化縣彰化市西安里中正路２段３９９號,9,3737011025,24.07343,120.5366,OK
1578,彰化市文化里中民街３６號,9,3737011043,24.0850653,120.5469319,OK
1579,彰化縣彰化市復興里實踐路１５９號,9,3737011052,24.083508,120.5568958,OK
1580,彰化縣彰化市信義里中正路１段４０４號,9,3737012068,24.082899,120.543218,OK
1581,彰化縣彰化市民生里長興街１４９號,9,3737012077,24.084215,120.54429,OK
1582,彰化縣彰化市南瑤里中正路２段７８０６號,7,3737012086,24.0656252,120.5351057,OK
1583,彰化縣彰化市南興里中山路１段３３８號,9,3737012102,24.0603504,120.535228,OK
1584,彰化縣彰化市大竹里彰南路２段２１２號,9,3737012111,24.0843579,120.581712,OK
1585,彰化縣彰化市彰南路２段５６號,9,3737012139,24.08514,120.578139,OK
1586,彰化縣彰化市和調里工校街２５號,9,3737012157,24.0836659,120.5559146,OK
1587,彰化縣彰化市彰南路三段牛埔里１８４號,9,3737012166,24.081666,120.596765,OK
1588,彰化縣彰化市西安里曉陽路１０４號,9,3737012175,24.072634,120.539847,OK
1589,彰化縣彰化市東興里東民街５３號１樓２樓,9,3737012193,24.0760672,120.5455629,OK
1590,彰化縣彰化市曉陽路５０號１樓２樓,9,3737012200,24.072463,120.5414059,OK
1591,彰化縣彰化市彰安里中正路二段４３３號,9,3737012219,24.0727506,120.536288,OK
1592,彰化縣彰化市永安街２５０號,9,3737012228,24.0891,120.54426,OK
1593,彰化縣彰化市曉陽路１３０號,9,3737012237,24.0728026,120.5389435,OK
1594,彰化縣彰化市建國北路１０５號,9,3737012246,24.09453,120.549307,OK
1595,彰化縣彰化市曉陽路２２０號,9,3737012264,24.0731977,120.5368494,OK
1596,彰化縣彰化市延平里大埔路４９６號１樓,9,3737012273,24.064649,120.54286,OK
1597,彰化縣彰化市中華路２２２號１.２樓,9,3737012282,24.0780999,120.53852,OK
1598,彰化縣彰化市大竹里彰南路二段１９７、１９９號１樓,9,3737012291,24.085114,120.581165,OK
1599,彰化縣彰化市竹中里彰南路二段６１、６３號１樓,9,3737012308,24.085693,120.578086,OK
1600,彰化縣彰化市南瑤里中山路二段２號１－３樓 ,9,3737012326,24.066674,120.538689,OK
1601,彰化縣彰化市南瑤里中山路二段２號１樓,9,3737012353,24.066674,120.538689,OK
1602,彰化縣彰化市彰安里民族路２６８號１樓,9,3737012362,24.0718534,120.539529,OK
1603,彰化縣彰化市信義里中正路１段３４６號,9,3737012371,24.0831756,120.5447594,OK
1604,彰化縣彰化市興北里三民路２１９號,9,3737012380,24.0856481,120.5424843,OK
1605,彰化縣彰化市東興里東民街５８、６０、６２號１、２樓,9,3737012399,24.076375,120.545854,OK
1606,彰化縣彰化市成功里大埔路６４５號,9,3737012415,24.0674127,120.5426423,OK
1607,彰化縣彰化市南瑤里民族路１２４號１樓,9,3737012433,24.0686619,120.5382282,OK
1608,彰化縣彰化市中正里中正路１段２１７號,9,3737012442,24.083617,120.547376,OK
1609,彰化縣彰化市竹中里彰南路二段６１、６３號,9,3737012451,24.085693,120.578086,OK
1610,彰化縣彰化市中央里中華路２２２號,9,3737012479,24.0780999,120.53852,OK
1611,彰化縣彰化市阿夷里建國東路２９５號１，２樓,9,3737012488,24.0961958,120.5542808,OK
1612,彰化縣彰化市竹中里彰南路二段６１、６３號１樓,9,3737012497,24.085693,120.578086,OK
1613,彰化縣彰化市永福里孔門路１６號２樓，１８號２樓,9,3737012513,24.078459,120.5441687,OK
1614,彰化縣鹿港鎮永安里育民街１號,9,3737020024,24.055259,120.4379591,OK
1615,彰化縣鹿港鎮龍山里中山路１１１號,9,3737020042,24.0498644,120.435223,OK
1616,彰化縣鹿港鎮龍山里三民路１４９號,9,3737020079,24.050659,120.434822,OK
1617,彰化縣鹿港鎮永安里中正路１６９號,9,3737020088,24.0543258,120.4407494,OK
1618,彰化縣鹿港鎮溝墘里鹿和路三段６１９號,9,3737020097,24.0854514,120.4799688,OK
1619,彰化縣鹿港鎮中興里中山路２２１號,9,3737020113,24.0550804,120.4341901,OK
1620,彰化縣鹿港鎮街尾里彰鹿路七段６５７號,9,3737020131,24.0488436,120.4399173,OK
1621,彰化縣鹿港鎮景福里民權路１２８號,9,3737020168,24.057359,120.435914,OK
1622,彰化縣鹿港鎮永安里復興路３７６號,9,3737020202,24.0581073,120.4369203,OK
1623,彰化縣鹿港鎮中興里中山路３２７號,9,3737020220,24.0574257,120.4326253,OK
1624,彰化縣鹿港鎮中興里中山路２００號,9,3737020239,24.0548879,120.434783,OK
1625,彰化縣鹿港鎮興化里民族路１７９號,9,3737020248,24.0540769,120.4342227,OK
1626,彰化縣鹿港鎮永安里東興路２９５號,9,3737020266,24.0589449,120.4380641,OK
1627,彰化縣鹿港鎮泰興里中山路３０號,9,3737021272,24.0512382,120.4367599,OK
1628,彰化縣鹿港鎮街尾里彰鹿路８段６７號,9,3737021290,24.0498871,120.4376348,OK
1629,彰化縣鹿港鎮永安里中正路２４２－１號２樓 ,9,3737021307,24.0555735,120.4404882,OK
1630,彰化縣鹿港鎮頂番里頂草路１段１０８號,9,3737021334,24.0888418,120.4797175,OK
1631,彰化縣鹿港鎮民權路２８６號,9,3737021343,24.055273,120.4321988,OK
1632,彰化縣鹿港鎮街尾里中山南路１７４號１樓、２樓,9,3737021352,24.0499381,120.4370624,OK
1633,彰化縣鹿港鎮景福里１０鄰民族路５６號,9,3737021361,24.0561682,120.436607,OK
1634,彰化縣鹿港鎮大有里民族路２４１、２４３號,9,3737021370,24.0536689,120.433205,OK
1635,彰化縣和美鎮和東里彰美路五段３９０號,9,3737030011,24.1122537,120.4986089,OK
1636,彰化縣和美鎮道周路412號,9,3737030016,24.1083672,120.4954109,OK
1637,彰化縣和美鎮和東里仁安路２６４號,9,3737030020,24.111002,120.497778,OK
1638,彰化縣和美鎮和東里彰美路５段３０３號,9,3737030039,24.1105,120.4997275,OK
1639,彰化縣和美鎮山梨里道周路４１９號,9,3737030057,24.107495,120.496103,OK
1640,彰化縣和美鎮犁盛里彰新路二段４５０號,9,3737030075,24.10321,120.533467,OK
1641,彰化縣和美鎮和南里倡和街２４號,9,3737030084,24.1127603,120.4958927,OK
1642,彰化縣和美鎮和西里永樂路５１號,9,3737030093,24.114684,120.494919,OK
1643,彰化縣和美鎮竹營里德美路１８２號,9,3737030100,24.112241,120.502531,OK
1644,彰化縣和美鎮和西里和樂路７１號,9,3737030119,24.114575,120.495033,OK
1645,彰化縣和美鎮道周路山犛里２６２號,7,3737031134,24.097579,120.5183203,OK
1646,彰化縣和美鎮和西里１鄰彰美路６段１５３號,9,3737031143,24.114935,120.495997,OK
1647,彰化縣和美鎮和東里仁美路１８２號,7,3737031152,24.1073748,120.5034396,OK
1648,彰化縣和美鎮山犛里鹿和路六段３９０號,4,3737031161,24.1246022,120.5163949,OK
1649,彰化縣和美鎮彰美路５段３４６號,9,3737031170,24.111577,120.499224,OK
1650,彰化縣和美鎮和東里彰美路５段３４６號,9,3737031189,24.111577,120.499224,OK
1651,彰化縣和美鎮和東里彰美路５段３４６號,9,3737031198,24.111577,120.499224,OK
1652,彰化縣和美鎮愛華路３２９號２樓之１、之２,9,3737031205,24.1080082,120.497346,OK
1653,彰化縣和美鎮彰美路五段３４６號,9,3737031214,24.111577,120.499224,OK
1654,彰化縣北斗鎮新政里中華路２５４號,9,3737040017,23.873338,120.522381,OK
1655,彰化縣北斗鎮西德里公所街７０號,9,3737040035,23.871149,120.5206236,OK
1656,彰化縣北斗鎮新政里中華路２２３號,9,3737040053,23.872906,120.523127,OK
1657,彰化縣北斗鎮新政里中華路２３１號,9,3737040062,23.872885,120.522909,OK
1658,彰化縣北斗鎮居仁里中華路３３號１、２樓,9,3737040106,23.873038,120.5273909,OK
1659,彰化縣北斗鎮居仁里中華路３３號１、２樓,9,3737040115,23.873038,120.5273909,OK
1660,彰化縣員林市和平里中山路二段３號,9,3737050022,23.959647,120.570486,OK
1661,彰化縣員林市新興里育英路８７號之１,9,3737050031,23.9609609,120.574482,OK
1662,彰化縣員林市中山里民權街４３之１號,9,3737050086,23.9591753,120.570341,OK
1663,彰化縣員林市和平里中正路５３１號,9,3737050095,23.960111,120.571555,OK
